[
    { 
        "id": 1001,
        "name": "Addis Nola", 
        "address": "422 S Broad Ave", 
        "city": "New Orleans", 
        "state": "LA", 
        "zipcode": "70119", 
        "neighborhood": "Mid City",
        "type": "Ethiopian",
        "category": "Restaurant",
        "coordinates": {
            "latitude": 29.97653,
            "longitude": -90.07657
        },
        "description": "Ethiopian dishes in an intimate setting.",
        "isFavorite": true,
        "isFeatured": false,
        "imageName": "LogoDark"
    },
    { 
        "id": 1002,
        "name": "Apolline", 
        "address": "4729 Magazine St", 
        "city": "New Orleans", 
        "state": "LA", 
        "zipcode": "70115", 
        "neighborhood": "Uptown", 
        "type": "Breakfast",
        "category": "Restaurant",
        "coordinates": {
            "latitude": 29.92081,
            "longitude": -90.10578
        },
        "description": "Modern Louisiana cooking & happy hour",
        "isFavorite": false,
        "isFeatured": false,
        "imageName": "LogoLight"
    },
    {
        "id": 1003,
        "name": "Arnaud’s",
        "address":	"813 Bienville St",
        "city": "New Orleans",
        "state": "LA",
        "zipcode": "70112",
        "neighborhood": "French Quarter",
        "type": "Local",
        "category": "Restaurant",
        "coordinates": {
            "latitude": 29.95593,
            "longitude": -90.06882
        },
        "description": "Classy haunt for Creole fare since 1918",
        "isFavorite": false,
        "isFeatured": false,
        "imageName": "LogoDark"
    },
    {	
        "id": 1004,
        "name": "Atchafalaya",
        "address": "901 Louisiana Ave",
        "city":	"New Orleans",
        "state": "LA",
        "zipcode":"70115",
        "neighborhood": "Uptown",
        "type": "Local",
        "category": "Restaurant",
        "coordinates": {
            "latitude": 29.92146,
            "longitude": -90.08784
        },
        "description": "Modern Louisiana fare & craft cocktails",
        "isFavorite": false,
        "isFeatured": false,
        "imageName": "LogoLight"
        
    },
    {
        "id": 1005,
        "name": "Bar Brine",
        "address": "3200 Burgundy St",
        "city": "New Orleans",
        "state": "LA",
        "zipcode": "70117",
        "neighborhood":	"Bywater",
        "type": "Vegetarian",
        "category": "Restaurant",
        "coordinates": {
            "latitude": 29.96508,
            "longitude": -90.04287
        },
        "description": "Farm-to-fork cafe with vegetarian fare",
        "isFavorite": false,
        "isFeatured": false,
        "imageName": "LogoDark"
    },
    {
        "id": 1006,
        "name": "Barracuda",
        "address": "3984 Tchoupitoulas St",
        "city":	"New Orleans",
        "state": "LA",
        "zipcode": "70115",
        "neighborhood": "Uptown",
        "type":	"Mexican",
        "category": "Restaurant",
        "coordinates": {
            "latitude": 29.91765,
            "longitude": -90.09629
        },
        "description": "Comfy taqueria with outdoor tables",
        "isFavorite": false,
        "isFeatured": false,
        "imageName": "LogoLight"
    },
    {
        "id": 1007,
        "name": "Barrow’s Catfish",
        "address": "8300 Earhart Blvd #103",
        "city":	"New Orleans",
        "state": "LA",
        "zipcode": "70118",
        "neighborhood":	"Mid City",
        "type": "Seafood",
        "category": "Restaurant",
        "coordinates": {
            "latitude": 29.96241,
            "longitude": -90.11773
        },
        "description": "",
        "isFavorite": false,
        "isFeatured": false,
        "imageName": "LogoDark"
    },
    {   
        "id": 1008,
        "name":  "Basin Seafood and Spirits",
        "address":	"3222 Magazine St",
        "city":	"New Orleans",
        "state": "LA",
        "zipcode":	"70115",
        "neighborhood":	"Uptown",
        "type":	"Seafood",
        "category": "Restaurant",
        "coordinates": {
            "latitude": 29.92382,
            "longitude": -90.08695
        },
        "description": "Louisiana-inspired fare in a warm space",
        "isFavorite": false,
        "isFeatured": false,
        "imageName": "LogoLight"
    },
    {    
        "id": 1009,
        "name": "Bayona",
        "address": "430 Dauphine St",
        "city":	"New Orleans",
        "state": "LA",
        "zipcode":	"70112",
        "neighborhood":	"French Quarter",
        "type":	"Global",
        "category": "Restaurant",
        "coordinates": {
            "latitude": 29.92382,
            "longitude": -90.08695
        },
        "description": "Louisiana fare in a 200-year-old cottage",
        "isFavorite": false,
        "isFeatured": false,
        "imageName": "LogoDark"
    },
    {    
        "id": 1010,
        "name": "Bearcat Cafe",
        "address":	"2521 Jena St",
        "city":	"New Orleans",
        "state": "LA",
        "zipcode":	"70115",
        "neighborhood": "Uptown",
        "type":	"Vegan",
        "category": "Restaurant",
        "coordinates": {
            "latitude": 29.93585,
            "longitude": -90.10411
        },
        "description": "Modern cafe for eclectic brunch fare",
        "isFavorite": false,
        "isFeatured": false,
        "imageName": "LogoLight"
    },		
    {    
        "id": 1011,
        "name": "Bearcat CBD",
        "address":	"845 Carondelet St",
        "city":	"New Orleans",
        "state": "LA",
        "zipcode":	"70130",
        "neighborhood":	"Downtown",
        "type":	"Breakfast",
        "category": "Restaurant",
        "coordinates": {
            "latitude": 29.94543,
            "longitude": -90.07332
        },
        "description": "Well-known spot for brunch & dinner",
        "isFavorite": false,
        "isFeatured": false,
        "imageName": "LogoDark"
    },	
    {   
        "id": 1012,
        "name": "Bésame",
        "address":	"110 S Rampart St",
        "city":	"New Orleans",
        "state": "LA",
        "zipcode":	"70112",
        "neighborhood":	"Downtown",
        "type":	"Tapas",
        "category": "Restaurant",
        "coordinates": {
            "latitude": 29.95537,
            "longitude": -90.07295
        },
        "description": "",
        "isFavorite": false,
        "isFeatured": false,
        "imageName": "LogoLight"
    },
    {    
        "id": 1013,
        "name": "Bijou Restaurant & Bar",
        "address":	"1014 N Rampart St",
        "city":	"New Orleans",
        "state": "LA",
        "zipcode":	"70116",
        "neighborhood":	"French Quarter",
        "type":	"Bistro",
        "category": "Restaurant",
        "coordinates": {
            "latitude": 29.96344,
            "longitude": -90.06586
        },
        "description": "",
        "isFavorite": false,
        "isFeatured": false,
        "imageName": "LogoDark"
    },
    {
        "id": 1014,
        "name": "Blue Oak BBQ",
        "address":	"900 N Carrollton Ave",
        "city":	"New Orleans",
        "state": "LA",
        "zipcode":	"70119",
        "neighborhood":	"Mid City",
        "type":	"Barbecue",
        "category": "Restaurant",
        "coordinates": {
            "latitude": 29.98073,
            "longitude": -90.09359
        },
        "description": "Happening spot for Southern barbecue",
        "isFavorite": false,
        "isFeatured": false,
        "imageName": "LogoLight"
    },
    {    
        "id": 1015,
        "name": "Botanicals Nola",
        "address":	"3726 St Claude Ave",
        "city":	"New Orleans",
        "state": "LA",
        "zipcode":	"70117",
        "neighborhood":	"Bywater",
        "type":	"Vegan",
        "category": "Restaurant",
        "coordinates": {
            "latitude": 29.96607,
            "longitude": -90.03750
        },
        "description": "",
        "isFavorite": false,
        "isFeatured": false,
        "imageName": "LogoDark"
    },
    {    
        "id": 1016,
        "name": "Boucherie",
        "address":	"8115 Jeanette St",
        "city":	"New Orleans",
        "state": "LA",
        "zipcode":	"70118",
        "neighborhood":	"Uptown",
        "type":	"Creole",
        "category": "Restaurant",
        "coordinates": {
            "latitude": 29.95007,
            "longitude": -90.12769
        },
        "description": "Contemporary Southern classics",
        "isFavorite": false,
        "isFeatured": false,
        "imageName": "LogoLight"
    },
    {   
        "id": 1017,
        "name": "Bouligny Tavern",
        "address": "3641 Magazine St",
        "city":	"New Orleans",
        "state": "LA",
        "zipcode":	"70115",
        "neighborhood":	"Garden District",
        "type": "Local",
        "category": "Restaurant",
        "coordinates": {
            "latitude": 29.92198,
            "longitude": -90.09293
        },
        "description": "Swanky gastropub for modern small plates",
        "isFavorite": false,
        "isFeatured": false,
        "imageName": "LogoDark"
    },
    {   
        "id": 1018,
        "name": "Bratz Y’all! Bistro, Bakery, Biergarten",
        "address":	"617-B Piety St",
        "city":	"New Orleans",
        "state": "LA",
        "zipcode":	"70117",
        "neighborhood": "Bywater",
        "type":	"German",
        "category": "Restaurant",
        "coordinates": {
            "latitude": 29.96243,
            "longitude": -90.04293
        },
        "description": "German sandwiches, pes, & beer",
        "isFavorite": false,
        "isFeatured": false,
        "imageName": "LogoLight"
    },
    {
        "id": 1019,
        "name": "Breads on Oak",
        "address":	"8640 Oak St",
        "city":	"New Orleans",
        "state": "LA",
        "zipcode":	"70118",
        "neighborhood":	"Uptown",
        "type":	"Vegan",
        "category": "Restaurant",
        "coordinates": {
            "latitude": 29.95140,
            "longitude": -90.13474
        },
        "description": "Easygoing plant-based bakery & cafe",
        "isFavorite": false,
        "isFeatured": false,
        "imageName": "LogoDark"
    },
    {
        "id": 1020,
        "name": "Breakaway’s Restaurant & Bar",
        "address":	"2529 Dauphine St",
        "city": "New Orleans",
        "state": "LA",
        "zipcode":	"70117",
        "neighborhood":	"Bywater",
        "type":	"Local",
        "category": "Restaurant",
        "coordinates": {
            "latitude": 29.96634,
            "longitude": -90.05110
        },
        "description": "",
        "isFavorite": false,
        "isFeatured": false,
        "imageName": "LogoLight"
    },	
    {
        "id": 1021,
        "name": "Brennan’s",
        "address": "417 Royal St",
        "city":	"New Orleans",
        "state": "LA",
        "zipcode":	"70130",
        "neighborhood":	"French Quarter",
        "type":	"Local",
        "category": "Restaurant",
        "coordinates": {
            "latitude": 29.95624,
            "longitude": -90.06661
        },
        "description": "Traditional spot for upscale Creole fare",
        "isFavorite": false,
        "isFeatured": false,
        "imageName": "LogoDark"
    },
    {
        "id": 1022,
        "name": "Brigtsen’s Restaurant",
        "address":	"723 Dante St",
        "city":	"New Orleans",
        "state": "LA",
        "zipcode":	"70118",
        "neighborhood":	"Uptown",
        "type":	"Local",
        "category": "Restaurant",
        "coordinates": {
            "latitude": 29.94590,
            "longitude": -90.13468
        },
        "description": "Traditional spot for upscale Creole fare",
        "isFavorite": false,
        "isFeatured": false,
        "imageName": "LogoLight"
    },	
    {
        "id": 1023,
        "name": "Broussard’s Restaurant & Courtyard",
        "address":	"819 Conti St",
        "city":	"New Orleans",
        "state": "LA",
        "zipcode":	"70112",
        "neighborhood":	"French Quarter",
        "type":	"Creole",
        "category": "Restaurant",
        "coordinates": {
            "latitude": 29.95669,
            "longitude": -90.06809
        },
        "description": "Elegant dining & Creole fare since 1920",
        "isFavorite": false,
        "isFeatured": false,
        "imageName": "LogoDark"
    },	
    {
        "id": 1024,
        "name": "Cafe Degas",
        "address":	"3127 Esplanade Ave",
        "city":	"New Orleans",
        "state": "LA",
        "zipcode":	"70119",
        "neighborhood":	"Mid City",
        "type":	"French",
        "category": "Restaurant",
        "coordinates": {
            "latitude": 29.98062,
            "longitude": -90.08422
        },
        "description": "Intimate French bistro",
        "isFavorite": false,
        "isFeatured": false,
        "imageName": "LogoLight"
    },
    {
        "id": 1025,
        "name": "Café Reconcile",
        "address":	"1631 Oretha Castle Haley Blvd",
        "city":	"New Orleans",
        "state": "LA",
        "zipcode":	"70113",
        "neighborhood": "Central City",
        "type":	"Local",
        "category": "Restaurant",
        "coordinates": {
            "latitude": 29.94013,
            "longitude": -90.08041
        },
        "description": "Nonprofit Southern lunch spot",
        "isFavorite": false,
        "isFeatured": false,
        "imageName": "LogoDark"
    },	
    {
        "id": 1026,
        "name": "Cane and Table",
        "address":	"1113 Decatur St",
        "city":	"New Orleans",
        "state": "LA",
        "zipcode":	"70116",
        "neighborhood":	"Marigny",
        "type":	"Tropical",
        "category": "Restaurant",
        "coordinates": {
            "latitude": 29.96045,
            "longitude": -90.05978
        },
        "description": "Rum cocktails & eclectic nibbles",
        "isFavorite": false,
        "isFeatured": false,
        "imageName": "LogoLight"
    },
    {
        "id": 1027,
        "name": "Capulet",
        "address":	"3014 Dauphine St",
        "city":	"New Orleans",
        "state": "LA",
        "zipcode":	"70117",
        "neighborhood":	"Bywater",
        "type":	"Tapas",
        "category": "Restaurant",
        "coordinates": {
            "latitude": 29.96482,
            "longitude": -90.04649
        },
        "description": "Trendy eatery for bar bites & cocktails",
        "isFavorite": false,
        "isFeatured": false,
        "imageName": "LogoDark"
    },
    {
        "id": 1028,
        "name": "Carmo",
        "address":	"527 Julia St",
        "city":	"New Orleans",
        "state":	"LA",
        "zipcode":	"70130",
        "neighborhood":	"Downtown",
        "type":	"Vegan",
        "category": "Restaurant",
        "coordinates": {
            "latitude": 29.94583,
            "longitude": -90.06998
        },
        "description": "Cafe with vegan-friendly tropical eats",
        "isFavorite": false,
        "isFeatured": false,
        "imageName": "LogoLight"
    },		
    {
        "id": 1029,
        "name": "Casa Borrega: Fonda & Mezcaleria",
        "address": "1719 Oretha Castle Haley Blvd",
        "city": "New Orleans",
        "state": "LA",
        "zipcode": "70113",
        "neighborhood": "Central City",
        "type": "Mexican",
        "category": "Restaurant",
        "coordinates": {
            "latitude": 29.93966,
            "longitude": -90.08065
        },
        "description": "Temporarily Closed",
        "isFavorite": false,
        "isFeatured": false,
        "imageName": "LogoDark"
    },
    {
        "id": 1030,
        "name": "Casamento’s Restaurant",
        "address": "4330 Magazine St",
        "city": "New Orleans",
        "state": "LA",
        "zipcode": "70115",
        "neighborhood":	"Uptown",
        "type":	"Local",
        "category": "Restaurant",
        "coordinates": {
            "latitude": 29.92098,
            "longitude": -90.10103
        },
        "description": "category for fresh oysters since 1919",
        "isFavorite": false,
        "isFeatured": false,
        "imageName": "LogoLight"
    },	
    {
        "id": 1031,
        "name": "Charlie’s Steak House",
        "address":	"4510 Dryades St",
        "city":	"New Orleans",
        "state":	"LA",
        "zipcode":	"70115",
        "neighborhood":	"Uptown",
        "type":	"Steakhouse",
        "category": "Restaurant",
        "coordinates": {
            "latitude": 29.92946,
            "longitude": -90.10407
        },
        "description": "Classic steaks & sides since 1932",
        "isFavorite": false,
        "isFeatured": false,
        "imageName": "LogoDark"
    },	
    {
        "id": 1032,
        "name": "Chemin a la Mer",
        "address":	"2 Canal St",
        "city":	"New Orleans",
        "state":	"LA",
        "zipcode":	"70130",
        "neighborhood":	"Downtown",
        "type":	"French",
        "category": "Restaurant",
        "coordinates": {
            "latitude": 29.94926,
            "longitude": -90.06388
        },
        "description": "Fine dining in a posh hotel restaurant",
        "isFavorite": false,
        "isFeatured": false,
        "imageName": "LogoLight"
    },		
    {
        "id": 1033,
        "name": "Cho Thai",
        "address":	"3218 Magazine St",
        "city": "New Orleans",
        "state":	"LA",
        "zipcode":	"70115",
        "neighborhood":	"Uptown",
        "type":	"Thai",
        "category": "Restaurant",
        "coordinates": {
            "latitude": 29.92377,
            "longitude": -90.08683
        },
        "description": "Temporarily closed",
        "isFavorite": false,
        "isFeatured": false,
        "imageName": "LogoDark"
    },	
    {
        "id": 1034,
        "name": "Cleo’s Mediterranean Cuisine",
        "address":	"940 Canal St",
        "city":	"New Orleans",
        "state":	"LA",
        "zipcode":	"70112",
        "neighborhood":	"Downtown",
        "type":	"Mediterranean",
        "category": "Restaurant",
        "coordinates": {
            "latitude": 29.95487,
            "longitude": -90.07198
        },
        "description": "Grocery & cafe with classic meals",
        "isFavorite": false,
        "isFeatured": false,
        "imageName": "LogoLight"
    },	
    {
        "id": 1035,
        "name": "Commander’s Palace",
        "address":	"1403 Washington Ave",
        "city":	"New Orleans",
        "state":	"LA",
        "zipcode":	"70130",
        "neighborhood":	"Garden District",
        "type":	"Local",
        "category": "Restaurant",
        "coordinates": {
            "latitude": 29.92903,
            "longitude": -90.08424
        },
        "description": "Destination for upscale Creole fare",
        "isFavorite": false,
        "isFeatured": false,
        "imageName": "LogoDark"
    },
    {
        "id": 1036,
        "name": "Compére Lapin",
        "address":	"535 Tchoupitoulas St",
        "city":	"New Orleans",
        "state":	"LA",
        "zipcode":	"70130",
        "neighborhood":	"Downtown",
        "type":	"Carribbean",
        "category": "Restaurant",
        "coordinates": {
            "latitude": 29.94814,
            "longitude": -90.06730
        },
        "description": "Elegant spot for Carribean dishes",
        "isFavorite": false,
        "isFeatured": false,
        "imageName": "LogoLight"
    },
    {
        "id": 1037,
        "name": "Cooter Brown’s Tavern & Oyster Bar",
        "address":	"509 S Carrollton Ave",
        "city":	"New Orleans",
        "state":	"LA",
        "zipcode":	"70118",
        "neighborhood":	"Uptown",
        "type":	"Local",
        "category": "Restaurant",
        "coordinates": {
            "latitude": 29.94266,
            "longitude": -90.13447
        },
        "description": "Sports bar with oysters & beers galore",
        "isFavorite": false,
        "isFeatured": false,
        "imageName": "LogoDark"
    },
    {
        "id": 1038,
        "name": "Coquette",
        "address":	"2800 Magazine St",
        "city":	"New Orleans",
        "state":	"LA",
        "zipcode":	"70115",
        "neighborhood":	"Garden District",
        "type":	"Experimental",
        "category": "Restaurant",
        "coordinates": {
            "latitude": 29.92615,
            "longitude": -90.08259
        },
        "description": "Chic bistro with New American eats",
        "isFavorite": false,
        "isFeatured": false,
        "imageName": "LogoLight"
    },
    {
        "id": 1039,
        "name": "Couvant at The Eliza Jane Hotel",
        "address":	"315 Magazine St",
        "city":	"New Orleans",
        "state":	"LA",
        "zipcode":	"70130",
        "neighborhood":	"Downtown",
        "type":	"Brasserie",
        "category": "Restaurant",
        "coordinates": {
            "latitude": 29.95045,
            "longitude": -90.06797
        },
        "description": "French restaurant with a charming patio",
        "isFavorite": false,
        "isFeatured": false,
        "imageName": "LogoDark"
    },
    {
        "id": 1040,
        "name": "Crêpes á la Cart",
        "address":	"1039 Broadway St",
        "city":	"New Orleans",
        "state":	"LA",
        "zipcode":	"70118",
        "neighborhood":	"Uptown",
        "type":	"French",
        "category": "Restaurant",
        "coordinates": {
            "latitude": 29.94151,
            "longitude": -90.12365
        },
        "description": "Casual counter for sweet & savory crepes",
        "isFavorite": false,
        "isFeatured": false,
        "imageName": "LogoLight"
    },
    {
        "id": 1041,
        "name": "Domilise’s Po-Boy & Bar",
        "address":	"5240 Annunciation St",
        "city":	"New Orleans",
        "state":	"LA",
        "zipcode":	"70115",
        "neighborhood":	"Uptown",
        "type":	"Local",
        "category": "Restaurant",
        "coordinates": {
            "latitude": 29.91752,
            "longitude": -90.11233
        },
        "description": "Beloved neighborhood po' boy & beer spot",
        "isFavorite": false,
        "isFeatured": false,
        "imageName": "LogoDark"
    },
    {
        "id": 1042,
        "name": "Dooky Chase Restaurant",
        "address":	"2301 Orleans Ave",
        "city":	"New Orleans",
        "state":	"LA",
        "zipcode":	"70119",
        "neighborhood":	"Tremé",
        "type":	"Local",
        "category": "Restaurant",
        "coordinates": {
            "latitude": 29.96817,
            "longitude": -90.07847
        },
        "description": "Destination for Creole comfort fare",
        "isFavorite": false,
        "isFeatured": false,
        "imageName": "LogoLight"
    },
    {
        "id": 1043,
        "name": "El Pavo Real",
        "address":	"4401 S Broad Ave",
        "city":	"New Orleans",
        "state":	"LA",
        "zipcode":	"70125",
        "neighborhood":	"Broadmoor",
        "type":	"Breakfast",
        "category": "Restaurant",
        "coordinates": {
            "latitude": 29.94939,
            "longitude": -90.10438
        },
        "description": "Mexican meals & drinks in laid-back digs",
        "isFavorite": false,
        "isFeatured": false,
        "imageName": "LogoDark"
    },
    {
        "id": 1044,
        "name": "Fritai",
        "address":	"1535 Basin St",
        "city":	"New Orleans",
        "state":	"LA",
        "zipcode":	"70116",
        "neighborhood":	"Tremé",
        "type":	"Haitian",
        "category": "Restaurant",
        "coordinates": {
            "latitude": 29.96398,
            "longitude": -90.07199
        },
        "description": "",
        "isFavorite": false,
        "isFeatured": false,
        "imageName": "LogoLight"
    },
    {
        "id": 1045,
        "name": "Gabrielle Restaurant",
        "address":	"2441 Orleans Ave",
        "city":	"New Orleans",
        "state":	"LA",
        "zipcode":	"70119",
        "neighborhood":	"Tremé",
        "type":	"Local",
        "category": "Restaurant",
        "coordinates": {
            "latitude": 29.96938,
            "longitude": -90.08005
    
        },
        "description": "Cheery spot for refined Cajun fare",
        "isFavorite": false,
        "isFeatured": false,
        "imageName": "LogoDark"
    },
    {
        "id": 1046,
        "name": "Galaxie",
        "address":	"3060 St Claude Ave",
        "city":	"New Orleans",
        "state":	"LA",
        "zipcode":	"70117",
        "neighborhood":	"Bywater",
        "type":	"Mexican",
        "category": "Restaurant",
        "coordinates": {
            "latitude": 29.96768,
            "longitude": -90.04458
        },
        "description": "",
        "isFavorite": false,
        "isFeatured": false,
        "imageName": "LogoLight"
    },
    {
        "id": 1047,
        "name": "Gris-Gris",
        "address":	"1800 Magazine St",
        "city":	"New Orleans",
        "state":	"LA",
        "zipcode":	"70130",
        "neighborhood":	"Garden District",
        "type":	"Local",
        "category": "Restaurant",
        "coordinates": {
            "latitude": 29.93202,
            "longitude": -90.07347
        },
        "description": "Refined Southern fare in a stylish space",
        "isFavorite": false,
        "isFeatured": false,
        "imageName": "LogoDark"
    },
    {
        "id": 1048,
        "name": "GW Fins",
        "address": "808 Bienville St",
        "city":	"New Orleans",
        "state":	"LA",
        "zipcode":	"70112",
        "neighborhood":	"French Quarter",
        "type":	"Seafood",
        "category": "Restaurant",
        "coordinates": {
            "latitude": 29.95582,
            "longitude": -90.06892
        },
        "description": "Upscale Seafood Dining",
        "isFavorite": false,
        "isFeatured": false,
        "imageName": "LogoLight"
    },	
    {
        "id": 1049,
        "name": "Heard Dat Kitchen",	
        "address": "2520 Felicity St",	
        "city": "New Orleans",	
        "state": "LA",	
        "zipcode": "70113",	
        "neighborhood": "Central City",	
        "type": "Local",
        "category": "Restaurant",
        "coordinates": {
            "latitude": 29.94405,
            "longitude": -90.08623
        },
        "description": "Creative Southern eats in basic environments",
        "isFavorite": false,
        "isFeatured": false,
        "imageName": "LogoDark"
    },
    {    
        "id": 1050,
        "name": "Herbsaint",	
        "address": "701 St Charles Ave",	
        "city": "New Orleans",	
        "state": "LA",	
        "zipcode": "70130",	
        "neighborhood": "Downtown",	
        "type": "Local",
        "category": "Restaurant",
        "coordinates": {
            "latitude": 29.94752,
            "longitude": -90.07143
        },
        "description": "Classy spot for French & American dishes",
        "isFavorite": false,
        "isFeatured": false,
        "imageName": "LogoLight"
    },
    {    
        "id": 1051,
        "name": "HiVolt",	
        "address": "1829 Sophie Wright Pl",	
        "city": "New Orleans",	
        "state": "LA",	
        "zipcode": "70130",	
        "neighborhood": "Garden District",	
        "type": "Breakfast",
        "category": "Restaurant",
        "coordinates": {
            "latitude": 29.94739,
            "longitude": -90.07148
        },
        "description": "Classy spot for French & American dishes",
        "isFavorite": false,
        "isFeatured": false,
        "imageName": "LogoDark"
    },
    {
        "id": 1052,
        "name": "Hoshun",	
        "address": "1601 St Charles Ave",	
        "city": "New Orleans",	
        "state": "LA",	
        "zipcode": "70130",	
        "neighborhood": "Garden District",	
        "type": "Asian",
        "category": "Restaurant",
        "coordinates": {
            "latitude": 29.93856,
            "longitude": -90.07635
        },
        "description": "",
        "isFavorite": false,
        "isFeatured": false,
        "imageName": "LogoLight"
    },
    {
        "id": 1053,
        "name": "I-tal Garden",	
        "address": "810 N Claiborne Ave",	
        "city": "New Orleans",	
        "state": "LA",	
        "zipcode": "70116",	
        "neighborhood": "Tremé",	
        "type": "Vegan",
        "category": "Restaurant",
        "coordinates": {
            "latitude": 29.96499,
            "longitude": -90.07219
        },
        "description": "Vegan eatery serving comfort food",
        "isFavorite": false,
        "isFeatured": false,
        "imageName": "LogoDark"
    },
    {
        "id": 1054,
        "name": "Ideal Market #2",	
        "address": "250 S Broad Ave",
        "city": "New Orleans",	
        "state": "LA",	
        "zipcode": "70119",	
        "neighborhood": "Mid City",	
        "type": "Breakfast",
        "category": "Restaurant",
        "coordinates": {
            "latitude": 29.96405,
            "longitude": -90.08843
        },
        "description": "ino grocery store & prepared foods",
        "isFavorite": false,
        "isFeatured": false,
        "imageName": "LogoLight"
    },
    {    
        "id": 1055,
        "name": "Juniors on Harrison",	
        "address": "789 Harrison Ave",	
        "city": "New Orleans",	
        "state": "LA",	
        "zipcode": "70124",	
        "neighborhood": "Lakeview",	
        "type": "Experimental",
        "category": "Restaurant",
        "coordinates": {
            "latitude": 30.00497,
            "longitude": -90.10589
        },
        "description": "",
        "isFavorite": false,
        "isFeatured": false,
        "imageName": "LogoDark"
    },
    {   
        "id": 1056,
        "name": "Katies",
        "address":	"3701 Iberville St",
        "city":	"New Orleans",
        "state":	"LA",
        "zipcode":	"70119",
        "neighborhood":	"Mid City",
        "type":	"Local",
        "category": "Restaurant",
        "coordinates": {
            "latitude": 29.97336,
            "longitude": -90.09593
        },
        "description": "Homey category for Creole & Italian eats",
        "isFavorite": false,
        "isFeatured": false,
        "imageName": "LogoLight"
    },
    {
        "id": 1057,
        "name": "Kindred",
        "address":	"7537 Maple St",
        "city":	"New Orleans",
        "state":	"LA",
        "zipcode":	"70118",
        "neighborhood":	"Uptown",
        "type":	"Vegan",
        "category": "Restaurant",
        "coordinates": {
            "latitude": 29.94147,
            "longitude": -90.12852
        },
        "description": "",
        "isFavorite": false,
        "isFeatured": false,
        "imageName": "LogoDark"
    },
    {  
        "id": 1058,
        "name": "Kitchen Table Cafe",
        "address":	"7005 St Claude Ave",
        "city":	"Arabi",
        "state":	"LA",
        "zipcode":	"70032",
        "neighborhood": "Arabi",
        "type":	"Comfort Food",
        "category": "Restaurant",
        "coordinates": {
            "latitude": 29.95713,
            "longitude": -90.00205
        },
        "description": "",
        "isFavorite": false,
        "isFeatured": false,
        "imageName": "LogoLight"
    },
    {    
        "id": 1059,
        "name": "La Petite Grocery",
        "address":	"4238 Magazine St",
        "city":	"New Orleans",
        "state":	"LA",
        "zipcode":	"70115",
        "neighborhood":	"Uptown",
        "type":	"Local",
        "category": "Restaurant",
        "coordinates": {
            "latitude": 29.92101,
            "longitude": -90.10008
        },
        "description": "Quaint spot for modern Louisiana cuisine",
        "isFavorite": false,
        "isFeatured": false,
        "imageName": "LogoDark"
    },    
    {
        "id": 1060,
        "name": "Le Chat Noir",
        "address":	"715 St Charles Ave",
        "city":	"New Orleans",
        "state":	"LA",
        "zipcode":	"70130",
        "neighborhood":	"Downtown",
        "type":	"French",
        "category": "Restaurant",
        "coordinates": {
            "latitude": 29.94735,
            "longitude": -90.07163
        },
        "description": "",
        "isFavorite": false,
        "isFeatured": false,
        "imageName": "LogoLight"
    },
    {
        "id": 1061,
        "name": "Lengua Madre",
        "address":	"1245 Constance St",
        "city":	"New Orleans",
        "state":	"LA",
        "zipcode":	"70130",
        "neighborhood":	"Garden District",
        "type":	"Mexican",
        "category": "Restaurant",
        "coordinates": {
            "latitude": 29.93824,
            "longitude": -90.07028
        },
        "description": "",
        "isFavorite": false,
        "isFeatured": false,
        "imageName": "LogoDark"
    },
    {
        "id": 1062,
        "name": "Li’l Dizzy’s Cafe",
        "address": 	"1500 Esplanade Ave",
        "city":	"New Orleans",
        "state":	"LA",
        "zipcode":	"70112",
        "neighborhood":	"Tremé",
        "type":	"Local",
        "category": "Restaurant",
        "coordinates": {
            "latitude": 29.96889,
            "longitude": -90.06782
        },
        "description": "Creole spot offering classic soul food",
        "isFavorite": false,
        "isFeatured": false,
        "imageName": "LogoLight"
    },
    {
        "id": 1063,
        "name": "Lilette",	
        "address": "3637 Magazine St",	
        "city": "New Orleans",	
        "state": "LA",	
        "zipcode": "70115",	
        "neighborhood": "Garden District",	
        "type": "French",
        "category": "Restaurant",
        "coordinates": {
            "latitude": 29.92216,
            "longitude": -90.09270
        },
        "description": "Upscale Parisian style bistro with patio",
        "isFavorite": false,
        "isFeatured": false,
        "imageName": "LogoDark"
    },
    {    
        "id": 1064,
        "name": "Lilly’s Café",	
        "address": "1813 Magazine St",	
        "city": "New Orleans",	
        "state": "LA",	
        "zipcode": "70130",	
        "neighborhood": "Garden District",	
        "type": "Vietnamese",
        "category": "Restaurant",
        "coordinates": {
            "latitude": 29.93227,
            "longitude": -90.07344
        },
        "description": "Casual joint serving Vietnamese classics",
        "isFavorite": false,
        "isFeatured": false,
        "imageName": "LogoLight"
    },
    {
        "id": 1065,
        "name": "Liuzza’s by the Track",	
        "address": "1518 N Lopez St",	
        "city": "New Orleans",	
        "state": "LA",	
        "zipcode": "70119",	
        "neighborhood": "Mid City",	
        "type": "Local",
        "category": "Restaurant",
        "coordinates": {
            "latitude": 29.98052,
            "longitude": -90.08316
        },
        "description": "Creol stop for famed BBQ shrimp po' boy",
        "isFavorite": false,
        "isFeatured": false,
        "imageName": "LogoDark"
    },
    {    
        "id": 1066,
        "name": "Loya’s Mexican Restaurant",	
        "address": "3102 Fern St",	
        "city": "New Orleans",	
        "state": "LA",	
        "zipcode": "70125",	
        "neighborhood": "Mid City",	
        "type": "Breakfast",
        "category": "Restaurant",
        "coordinates": {
            "latitude": 29.96054,
            "longitude": -90.11288
        },
        "description": "",
        "isFavorite": false,
        "isFeatured": false,
        "imageName": "LogoLight"
    },    
    {    
        "id": 1067,
        "name": "Luvi Restaurant",	
        "address": "5326 Tchoupitoulas St",	
        "city": "New Orleans",	
        "state": "LA",	
        "zipcode": "70115",	
        "neighborhood": "Uptown",	
        "type": "Asian",
        "category": "Restaurant",
        "coordinates": {
            "latitude": 29.91656,
            "longitude": -90.11223
        },
        "description": "Innovative Pan-Asian eats in cozy digs",
        "isFavorite": false,
        "isFeatured": false,
        "imageName": "LogoDark"
    },
    {    
        "id": 1068,
        "name": "Maïs Arepas",	
        "address": "1200 Carondelet St",	
        "city": "New Orleans",	
        "state": "LA",	
        "zipcode": "70130",	
        "neighborhood": "Central City",	
        "type": "Colombian",
        "category": "Restaurant",
        "coordinates": {
            "latitude": 29.94208,
            "longitude": -90.07516
        },
        "description": "Traditional Colombian eats in mod digs",
        "isFavorite": false,
        "isFeatured": false,
        "imageName": "LogoLight"
    },
    {    
        "id": 1069,
        "name": "Margot’s",	
        "address": "1243 Frenchmen St",	
        "city": "New Orleans",	
        "state": "LA",	
        "zipcode": "70116",	
        "neighborhood": "Bywater",	
        "type": "Pizza",
        "category": "Restaurant",
        "coordinates": {
            "latitude": 29.97058,
            "longitude": -90.05822
        },
        "description": "",
        "isFavorite": false,
        "isFeatured": false,
        "imageName": "LogoDark"
    },
    {    
        "id": 1070,
        "name": "Marjie’s Grill",	
        "address": "320 S Broad Ave",	
        "city": "New Orleans",	
        "state": "LA",	
        "zipcode": "70119",	
        "neighborhood": "Mid City",	
        "type": "Asian",
        "category": "Restaurant",
        "coordinates": {
            "latitude": 29.96336,
            "longitude": -90.08912
        },
        "description": "Trendy stop for Southeast Asian bar menu",
        "isFavorite": false,
        "isFeatured": false,
        "imageName": "LogoLight"
    },
    {
        "id": 1071,
        "name": "Mawi NOLA",	
        "address": "5050 W Esplanade Ave",	
        "city": "Metairie",	
        "state": "LA",	
        "zipcode": "70006",	
        "neighborhood": "Metairie",	
        "type": "Breakfast",
        "category": "Restaurant",
        "coordinates": {
            "latitude": 30.01686,
            "longitude": -90.20079
        },
        "description": "",
        "isFavorite": false,
        "isFeatured": false,
        "imageName": "LogoDark"
    },
    {    
        "id": 1073,
        "name": "McHardy’s Chicken & Fixin’",	
        "address": "1458 N Broad St",	
        "city": "New Orleans",	
        "state": "LA",	
        "zipcode": "70119",
        "neighborhood": "Seventh Ward",	
        "type": "Local",
        "category": "Restaurant",
        "coordinates": {
            "latitude": 29.97713,
            "longitude": -90.07714
        },
        "description": "Quick-serve known for fried chicken",
        "isFavorite": false,
        "isFeatured": false,
        "imageName": "LogoLight"
    },    
    {    
        "id": 1074,
        "name": "Meals From the Heart Cafe",	
        "address": "1100 N Peters St #13",	
        "city": "New Orleans",
        "state":"LA",	
        "zipcode": "70116",	
        "neighborhood": "French Quarter",
        "type": "Vegan",
        "category": "Restaurant",
        "coordinates": {
            "latitude": 29.96014,
            "longitude": -90.05936
        },
        "description": "Health-conscious eatery with vegan fare",
        "isFavorite": false,
        "isFeatured": false,
        "imageName": "LogoDark"
    },   
    {    
        "id": 1075,
        "name": "Mister Mao",	
        "address": "4501 Tchoupitoulas St",	
        "city": "New Orleans",
        "state": "LA",
        "zipcode": "70115",	
        "neighborhood": "Uptown",
        "type": "Experimental",
        "category": "Restaurant",
        "coordinates": {
            "latitude": 29.91732,
            "longitude": -90.10246
        },
        "description": "",
        "isFavorite": false,
        "isFeatured": false,
        "imageName": "LogoLight"
    },    
    {    
        "id": 1076,
        "name": "Mosquito Supper Club",	
        "address": "3824 Dryades St",	
        "city": "New Orleans",	
        "state": "LA",	
        "zipcode": "70115",	
        "neighborhood": "Uptown",	
        "type": "Local",
        "category": "Restaurant",
        "coordinates": {
            "latitude": 29.92990,
            "longitude": -90.09700
        },
        "description": "",
        "isFavorite": false,
        "isFeatured": false,
        "imageName": "LogoDark"
    },    
    {    
        "id": 1077,
        "name": "Mukbang Seafood and Bar",	
        "address": "8312 Oak St",	
        "city": "New Orleans",
        "state": "LA",
        "zipcode": "70118",
        "neighborhood": "Uptown",
        "type": "Vietnamese",
        "category": "Restaurant",
        "coordinates": {
            "latitude": 29.94916,
            "longitude": -90.13189
        },
        "description": "",
        "isFavorite": false,
        "isFeatured": false,
        "imageName": "LogoLight"
    },
    {    
       "id": 1078,
       "name": "N7",	
       "address": "1117 Montegut St",	
       "city": "New Orleans",	
       "state": "LA",	
       "zipcode": "70117",	
       "neighborhood": "Bywater",	
       "type": "French",
       "category": "Restaurant",
       "coordinates": {
           "latitude": 29.96879,
           "longitude": -90.04575
       },
       "description": "Funky French bistro with a courtyard",
       "isFavorite": false,
       "isFeatured": false,
       "imageName": "LogoDark"
    },
    {    
        "id": 1079,
        "name": "Nice Guys Bar and Grill",	
        "address": "7910 Earhart Blvd",	
        "city": "New Orleans",
        "state": "LA",	
        "zipcode": "70125",	
        "neighborhood": "Mid City",	
        "type": "American",
        "category": "Restaurant",
        "coordinates": {
            "latitude": 29.96020,
            "longitude": -90.11371
        },
        "description": "Relaxed spot with burgers & wings",
        "isFavorite": false,
        "isFeatured": false,
        "imageName": "LogoLight"
    },   
    {
        "id": 1080,
        "name": "Original Thought NOLA",	
        "address": "1871 Agriculture St",	
        "city": "New Orleans",	
        "state": "LA",
        "zipcode": "70119",
        "neighborhood": "Gentilly",	
        "type": "Vegan",
        "category": "Restaurant",
        "coordinates": {
            "latitude": 29.98770,
            "longitude": -90.06620
        },
        "description": "",
        "isFavorite": false,
        "isFeatured": false,
        "imageName": "LogoDark"
    },
    {
        "id": 1081,
        "name": "Pagoda Café",	
        "address": "1430 N Dorgenois St",	
        "city": "New Orleans",
        "state": "LA",
        "zipcode": "70119",
        "neighborhood": "Seventh Ward",
        "type": "Breakfast",
        "category": "Restaurant",
        "coordinates": {
            "latitude": 29.97606,
            "longitude": -90.07593
        },
        "description": "Quirky standby for breakfast & lunch",
        "isFavorite": false,
        "isFeatured": false,
        "imageName": "LogoLight"
    },
    {    
        "id": 1082,
        "name": "Piece of Meat",	
        "address": "3301 Bienville St",	
        "city": "New Orleans",
        "state": "LA",
        "zipcode": "70119",
        "neighborhood": "Mid City",	
        "type": "Steakhouse",
        "category": "Restaurant",
        "coordinates": {
            "latitude": 29.97139,
            "longitude": -90.09139
        },
        "description": "Butcher & eatery for sandwiches or ribs",
        "isFavorite": false,
        "isFeatured": false,
        "imageName": "LogoDark"
    },    
    {   
        "id": 1083,
        "name": "Queen Trini Lisa",	
        "address": "4200 D Hemecourt St",	
        "city": "New Orleans",
        "state": "LA",
        "zipcode": "70119",
        "neighborhood": "Mid City",
        "type": "Jamaican",
        "category": "Restaurant",
        "coordinates": {
            "latitude": 29.97151,
            "longitude": -90.10629
        },
        "description": "",
        "isFavorite": false,
        "isFeatured": false,
        "imageName": "LogoLight"
    },
    {    
        "id": 1084,
        "name": "Saffron",	
        "address": "4128 Magazine St",	
        "city": "New Orleans",
        "state": "LA",
        "zipcode": "70115",
        "neighborhood": "Uptown",
        "type": "Indian",
        "category": "Restaurant",
        "coordinates": {
            "latitude": 29.92110,
            "longitude": -90.09886
        },
        "description": "Chic spot for Indian fare & cocktails",
        "isFavorite": false,
        "isFeatured": false,
        "imageName": "LogoDark"
    },
    {       
        "id": 1085,
        "name": "Saint-Germain",
        "address": "3054 St Claude Ave",	
        "city": "New Orleans",
        "state": "LA",
        "zipcode": "70117",
        "neighborhood": "Bywater",
        "type": "French",
        "category": "Restaurant",
        "coordinates": {
            "latitude": 29.96779,
            "longitude": -90.04475
        },
        "description": "",
        "isFavorite": false,
        "isFeatured": false,
        "imageName": "LogoLight"
    },
    {    
        "id": 1086,
        "name": "Saint John",	
        "address": "1117 Decatur St",	
        "city": "New Orleans",	
        "state": "LA",
        "zipcode": "70116",
        "neighborhood": "French Quarter",
        "type": "Creole",
        "category": "Restaurant",
        "coordinates": {
            "latitude": 29.96043,
            "longitude": -90.05983
        },
        "description": "",
        "isFavorite": false,
        "isFeatured": false,
        "imageName": "LogoDark"
    },
    {       
        "id": 1087,
        "name": "Santa Fe",	
        "address": "3201 Esplanade Ave",	
        "city": "New Orleans",	
        "state": "LA",
        "zipcode": "70119",	
        "neighborhood": "Mid City",
        "type": "Tex-Mex",
        "category": "Restaurant",
        "coordinates": {
            "latitude": 29.98107,
            "longitude": -90.08504
        },
        "description": "Southwestern fare margaritas & a porch",
        "isFavorite": false,
        "isFeatured": false,
        "imageName": "LogoLight"
    },
    {       
        "id": 1088,
        "name": "Satsuma Cafe",	
        "address": "3218 Dauphine St",	
        "city": "New Orleans",
        "state":"LA",	
        "zipcode": "70117",
        "neighborhood": "Bywater",
        "type": "Breakfast",
        "category": "Restaurant",
        "coordinates": {
            "latitude": 29.96404,
            "longitude": -90.04292
        },
        "description": "",
        "isFavorite": false,
        "isFeatured": false,
        "imageName": "LogoDark"
    },
    {       
        "id": 1089,
        "name": "Seafood Sally’s",	
        "address": "8400 Oak St",	
        "city":"New Orleans",	
        "state": "LA",
        "zipcode": "70118",
        "neighborhood": "Uptown",
        "type": "Seafood",
        "category": "Restaurant",
        "coordinates": {
            "latitude": 29.94951,
            "longitude": -90.13264
        },
        "description": "",
        "isFavorite": false,
        "isFeatured": false,
        "imageName": "LogoLight"
    },
    {       
        "id": 1090,
        "name": "Seaworthy",	
        "address": "630 Carondelet St",	
        "city": "New Orleans",
        "state": "LA",
        "zipcode": "70130",
        "neighborhood": "Downtown",
        "type": "Seafood",
        "category": "Restaurant",
        "coordinates": {
            "latitude": 29.94806,
            "longitude": -90.07232
        },
        "description": "Oysters & cocktails in swanky digs",
        "isFavorite": false,
        "isFeatured": false,
        "imageName": "LogoDark"
    },
    {
        "id": 1091,
        "name": "Sidecar Patio & Oyster Bar",	
        "address": "1114 Constance St",	
        "city": "New Orleans",	
        "state": "LA",
        "zipcode": "70130",
        "neighborhood": "Downtown",
        "type": "Seafood",
        "category": "Restaurant",
        "coordinates": {
            "latitude": 29.94078,
            "longitude": -90.06932
        },
        "description": "Casual alfresco spot showcasing seafood",
        "isFavorite": false,
        "isFeatured": false,
        "imageName": "LogoLight"
    },
    { 
        "id": 1092,
        "name": "Slim Goodies Diner",	
        "address": "3322 Magazine St",	
        "city": "New Orleans",
        "state": "LA",
        "zipcode": "70115",
        "neighborhood": "Garden District",
        "type": "Breakfast",
        "category": "Restaurant",
        "coordinates": {
            "latitude": 29.92322,
            "longitude": -90.08819
        },
        "description": "Kitschy, veggie-friendly daytime diner",
        "isFavorite": false,
        "isFeatured": false,
        "imageName": "LogoDark"
    },    
    {
        "id": 1093,
        "name": "Small Mart",	
        "address": "2700 Chartres St",	
        "city": "New Orleans",
        "state": "LA",
        "zipcode": "70117",	
        "neighborhood": "Bywater",
        "type": "Vegan",
        "category": "Restaurant",
        "coordinates": {
            "latitude": 29.96365,
            "longitude": -90.05076
        },
        "description": "",
        "isFavorite": false,
        "isFeatured": false,
        "imageName": "LogoLight"
    },
    {    
        "id": 1094,
        "name": "Sneaky Pickle & Bar Brine",	
        "address": "3200 Burgundy St",	
        "city": "New Orleans",
        "state": "LA",
        "zipcode": "70117",
        "neighborhood": "Bywater",
        "type": "Vegan",
        "category": "Restaurant",
        "coordinates": {
            "latitude": 29.96507,
            "longitude": -90.04289
        },
        "description": "Farm-to-fork cafe with vegetarian fare",
        "isFavorite": false,
        "isFeatured": false,
        "imageName": "LogoDark"
    },
    {    
        "id": 1095,
        "name": "SoBou Restaurant", 	
        "address": "310 Chartres St",	
        "city": "New Orleans",
        "state": "LA",
        "zipcode": "70130",	
        "neighborhood": "French Quarter",
        "type": "Local",
        "category": "Restaurant",
        "coordinates": {
            "latitude": 29.95461,
            "longitude": -90.06641
        },
        "description": "Hip Creole bar food & creative drinks",
        "isFavorite": false,
        "isFeatured": false,
        "imageName": "logoWhite"
    },
    {    
        "id": 1096,
        "name": "Stein’s Market and Deli",	
        "address": "2207 Magazine St",	
        "city": "New Orleans",
        "state": "LA",
        "zipcode": "70130",
        "neighborhood": "Garden District",
        "type": "Jewish",
        "category": "Restaurant",
        "coordinates": {
            "latitude": 29.92966,
            "longitude": -90.07714
        },
        "description": "Popular pick for meats, cheeses & brews",
        "isFavorite": false,
        "isFeatured": false,
        "imageName": "LogoDark"
    },
    {    
        "id": 1097,
        "name": "Sweet Soulfood",	
        "address": "1016 N Broad St",	
        "city": "New Orleans",
        "state": "LA",
        "zipcode": "70119",	
        "neighborhood": "Mid City",
        "type": "Vegan",
        "category": "Restaurant",
        "coordinates": {
            "latitude": 29.97389,
            "longitude": -90.08056
        },
        "description": "Low-key pick for vegan soul food",
        "isFavorite": false,
        "isFeatured": false,
        "imageName": "LogoDark"
    },
    {    
        "id": 1098,
        "name": "Sylvain",	
        "address": "625 Chartres",	
        "city": "New Orleans",
        "state": "LA",
        "zipcode": "70130",
        "neighborhood": "French Quarter",
        "type": "Gastropub",
        "category": "Restaurant",
        "coordinates": {
            "latitude": 29.95727,
            "longitude": -90.06422
        },
        "description": "Gastropub in a former carriage house",
        "isFavorite": false,
        "isFeatured": false,
        "imageName": "LogoLight"
    },
    {
        "id": 1099,
        "name": "Tân Dinh",	
        "address": "1705 Lafayette St",	
        "city": "Gretna",	
        "state": "LA",
        "zipcode": "70053",	
        "neighborhood": "Westbank",	
        "type": "Vietnamese",
        "category": "Restaurant",
        "coordinates": {
            "latitude": 29.90717,
            "longitude": -90.05378
        },
        "description": "Eatery with pho & traditional Vietnamese",
        "isFavorite": false,
        "isFeatured": false,
        "imageName": "LogoDark"
    },
    {
        "id": 1100,
        "name": "Taqueria Guerrero",	
        "address": "208 N Carrollton Ave",	
        "city": "New Orleans",	
        "state": "LA",
        "zipcode": "70119",
        "neighborhood": "Mid City",
        "type": "Mexican",
        "category": "Restaurant",
        "coordinates": {
            "latitude": 29.97572,
            "longitude": -90.09931
        },
        "description": "Mexican meals in charming surrounds",
        "isFavorite": false,
        "isFeatured": false,
        "imageName": "LogoLight"
    },
    {    
        "id": 1101,
        "name": "Tava Indian Street Food",	
        "address": "611 O’Keefe Ave Unit 8",	
        "city": "New Orleans",
        "state": "LA",
        "zipcode": "70113",
        "neighborhood": "Downtown",
        "type": "Indian",
        "category": "Restaurant",
        "coordinates": {
            "latitude": 29.94855,
            "longitude": -90.07539
        },
        "description": "",
        "isFavorite": false,
        "isFeatured": false,
        "imageName": "LogoDark"
    },
    {    
        "id": 1102,
        "name": "Thaihey NOLA",	
        "address": "308 Decatur St",	
        "city": "New Orleans",
        "state": "LA",
        "zipcode": "70130",
        "neighborhood": "French Quarter",
        "type": "Vegan",
        "category": "Restaurant",
        "coordinates": {
            "latitude": 29.95383,
            "longitude": -90.06526
        },
        "description": "",
        "isFavorite": false,
        "isFeatured": false,
        "imageName": "LogoLight"
    },
    {   
        "id": 1103,
        "name": "The Country Club",	
        "address": "634 Louisa St",	
        "city": "New Orleans",
        "state": "LA",
        "zipcode": "70117",
        "neighborhood": "Bywater",
        "type": "Local",
        "category": "Restaurant",
        "coordinates": {
            "latitude": 29.96315,
            "longitude": -90.04399
        },
        "description": "American bistro with a poolside patio",
        "isFavorite": false,
        "isFeatured": false,
        "imageName": "LogoDark"
    },
    {   
        "id": 1104,
        "name": "The Daily Beet",	
        "address": "1000 Girod St",	
        "city": "New Orleans",
        "state": "LA",
        "zipcode": "70113",	
        "neighborhood": "Downtown",
        "type": "Vegan",
        "category": "Restaurant",
        "coordinates": {
            "latitude": 29.94804,
            "longitude": -90.07542
        },
        "description": "Health-focused cafe for juices & more",
        "isFavorite": false,
        "isFeatured": false,
        "imageName": "LogoLight"
    },
    {   
        "id": 1105,
        "name": "The Kolache Kitchen",	
        "address": "4701 Freret St",	
        "city": "New Orleans",	
        "state": "LA",
        "zipcode": "70115",
        "neighborhood": "Uptown",
        "type": "Breakfast",
        "category": "Restaurant",
        "coordinates": {
            "latitude": 29.93531,
            "longitude": -90.10661
        },
        "description": "",
        "isFavorite": false,
        "isFeatured": false,
        "imageName": "LogoDark"
    },
    {   
        "id":  1106,
        "name": "The Original Fiorella’s Cafe",	
        "address": "5325 Franklin Ave",	
        "city": "New Orleans",
        "state": "LA",
        "zipcode": "70122",	
        "neighborhood": "Gentilly",
        "type": "Local",
        "category": "Restaurant",
        "coordinates": {
            "latitude": 30.01314,
            "longitude": -90.05087
        },
        "description": "Italian & Southern cooking in basic digs",
        "isFavorite": false,
        "isFeatured": false,
        "imageName": "LogoLight"
    },
    {   
        "id": 1107,
        "name": "Toups Meatery",	
        "address": "845 N Carrollton Ave",	
        "city": "New Orleans",
        "state": "LA",
        "zipcode": "70119",
        "neighborhood": "Mid City",
        "type": "Local",
        "category": "Restaurant",
        "coordinates": {
            "latitude": 29.98090,
            "longitude": -90.09451
        },
        "description": "Meat-focused Cajun eats & rustic setting",
        "isFavorite": false,
        "isFeatured": false,
        "imageName": "LogoDark"
    },
    {    
        "id": 1108,
        "name": "Trenasse",	
        "address": "444 St Charles Ave",	
        "city": "New Orleans",
        "state": "LA",
        "zipcode": "70130",
        "neighborhood": "Downtown",
        "type": "Seafood",
        "category": "Restaurant",
        "coordinates": {
            "latitude": 29.95058,
            "longitude": -90.06962
        },
        "description": "Cajun-Creole cuisine in an upscale space",
        "isFavorite": false,
        "isFeatured": false,
        "imageName": "LogoLight"
    },
    {   
        "id": 1109,
        "name": "Trilly Cheesesteaks",	
        "address": "3735 Ulloa St",	
        "city": "New Orleans",
        "state": "LA",
        "zipcode": "70119",
        "neighborhood": "Mid City",
        "type": "Vegan",
        "category": "Restaurant",
        "coordinates": {
            "latitude": 29.96767,
            "longitude": -90.10197
        },
        "description": "",
        "isFavorite": false,
        "isFeatured": false,
        "imageName": "LogoDark"
    },
    {   
        "id": 1110,
        "name": "Tujague’s",	
        "address": "429 Decatur St",	
        "city": "New Orleans",
        "state": "LA",
        "zipcode": "70130",
        "neighborhood": "French Quarter",
        "type": "Local",
        "category": "Restaurant",
        "coordinates": {
            "latitude": 29.95514,
            "longitude": -90.06452
        },
        "description": "longitudetime category with Creole tasting menu",
        "isFavorite": false,
        "isFeatured": false,
        "imageName": "LogoLight"
    },
    {   
        "id": 1111,
        "name": "Turkey and the Wolf",	
        "address": "739 Jackson Ave",	
        "city": "New Orleans",
        "state": "LA",
        "zipcode": "70130",
        "neighborhood": "Garden District",
        "type": "Sandwich",
        "category": "Restaurant",
        "coordinates": {
            "latitude": 29.92740,
            "longitude": -90.07443
        },
        "description": "Sandwiches & drinks in colourful digs",
        "isFavorite": false,
        "isFeatured": false,
        "imageName": "LogoDark"
    },
    {   
        "id": 1112,
        "name": "Union Ramen Bar",	
        "address": "1837 Magazine St Suite B",	
        "city": "New Orleans",
        "state": "LA",
        "zipcode": "70130",
        "neighborhood": "Garden District",
        "type": "Ramen",
        "category": "Restaurant",
        "coordinates": {
            "latitude": 29.93187,
            "longitude": -90.07387
        },
        "description": "Trendy eatery for Japanese staples",
        "isFavorite": false,
        "isFeatured": false,
        "imageName": "LogoLight"
    },
    {   
        "id": 1113,
        "name": "Vessel NOLA",	
        "address": "3835 Iberville St",	
        "city": "New Orleans",
        "state": "LA",
        "zipcode": "70119",	
        "neighborhood": "Mid City",
        "type": "Experimental",
        "category": "Restaurant",
        "coordinates": {
            "latitude": 29.97442,
            "longitude": -90.09749
        },
        "description": "Coastal Med menu in former church digs",
        "isFavorite": false,
        "isFeatured": false,
        "imageName": "LogoDark"
    },
    {   
        "id": 1114,
        "name": "Vyoone’s Restaurant",	
        "address": "412 Girod St",	
        "city": "New Orleans",
        "state": "LA",
        "zipcode": "70130",
        "neighborhood": "Downtown",
        "type": "French",
        "category": "Restaurant",
        "coordinates": {
            "latitude": 29.94665,
            "longitude": -90.06780
        },
        "description": "Casual French locale with a courtyard",
        "isFavorite": false,
        "isFeatured": false,
        "imageName": "LogoLight"
    },
    {   
        "id": 1115,
        "name": "Wakin Bakin’",	
        "address": "4408 Banks St",	
        "city": "New Orleans",
        "state": "LA",
        "zipcode": "70119",
        "neighborhood": "Mid City",
        "type": "Breakfast",
        "category": "Restaurant",
        "coordinates": {
            "latitude": 29.97456,
            "longitude": -90.10702
        },
        "description": "Cozy, comfy breakfast joint",
        "isFavorite": false,
        "isFeatured": false,
        "imageName": "LogoDark"
    },
    {    
        "id": 1116,
        "name": "Willie Mae’s Scotch House",	
        "address": "2401 St Ann St",	
        "city": "New Orleans",
        "state": "LA",
        "zipcode": "70119",
        "neighborhood": "Tremé",
        "type": "Local",
        "category": "Restaurant",
        "coordinates": {
            "latitude": 26.96932,
            "longitude": -90.07901
        },
        "description": "Acclaimed soul-food spot",
        "isFavorite": false,
        "isFeatured": false,
        "imageName": "LogoLight"
    },	
    {   
        "id": 1117,
        "name": "Wishing Town Bakery Cafe",
        "address": "802 Nashville Ave",
        "city": "New Orleans",
        "state": "LA",
        "zipcode": "70115",
        "neighborhood": "Uptown",
        "type": "Bakery",
        "category": "Restaurant",
        "coordinates": {
            "latitude": 29.92203,
            "longitude": -90.11920
        },
        "description": "",
        "isFavorite": false,
        "isFeatured": false,
        "imageName": "LogoDark"
    },
    {		
        "id": 1118,
        "name": "Zasu",
        "address": "127 N Carrollton Ave",
        "city":	"New Orleans",
        "state":	"LA",
        "zipcode":	"70119",
        "neighborhood":	"Mid City",
        "type": "Fusion",
        "category": "Restaurant",
        "coordinates": {
            "latitude": 29.97547,
            "longitude": -90.10018
        },
        "description": "",
        "isFavorite": false,
        "isFeatured": false,
        "imageName": "LogoLight"
    },
    {
        "id": 1119,
        "name": "Anna’s",
        "address":	"2601 Royal St",
        "city":	"New Orleans",
        "state":	"LA",
        "zipcode":	"70117",
        "neighborhood":	"Marigny",
        "type":	"Dive",
        "category": "Bar",
        "coordinates": {
            "latitude": 29.96506,
            "longitude": -90.05126
        },
        "description": "",
        "isFavorite": false,
        "isFeatured": false,
        "imageName": "LogoDark"
    },
    {
        "id": 1120,
        "name": "Midnight Revival",
        "address":	"417 Frenchmen St",
        "city":	"New Orleans",
        "state":	"LA",
        "zipcode":	"70116",
        "neighborhood":	"Marigny",
        "type":	"Cocktail",
        "category": "Bar",
        "coordinates": {
            "latitude": 29.96242,
            "longitude": -90.05740
        },
        "description": "",
        "isFavorite": false,
        "isFeatured": false,
        "imageName": "LogoLight"
    },
    {
       "id": 1121,
       "name": "Peychaud’s",
       "address": "727 Toulouse St",
       "city": "New Orleans",
       "state":	"LA",
       "zipcode":	"70112",
       "neighborhood":	"French Quarter",
       "type":	"Cocktail",
       "category": "Bar",
       "coordinates": {
           "latitude": 29.95781,
           "longitude": -90.06600
       },
       "description": "",
       "isFavorite": false,
       "isFeatured": false,
       "imageName": "LogoDark"
    },
    {
        "id": 1122,
        "name": "The Will & The Way",
        "address":	"721 Toulouse St",
        "city":	"New Orleans",
        "state":	"LA",
        "zipcode":	"70130",
        "neighborhood":	"French Quarter",
        "type":	"Cocktail",
        "category": "Bar",
        "coordinates": {
            "latitude": 29.95764,
            "longitude": -90.06582
        },
        "description": "",
        "isFavorite": false,
        "isFeatured": false,
        "imageName": "LogoLight"
    },
    {
        "id": 1123,
        "name": "Baroness on Baronne",
        "address":	"339 Baronne St",
        "city":	"New Orleans",
        "state":	"LA",
        "zipcode":	"70112",
        "neighborhood":	"Downtown",
        "type":	"Cocktail",
        "category": "Bar",
        "coordinates": {
            "latitude": 29.95161,
            "longitude": -90.07283
        },
        "description": "Sleek lounge with cocktail nibbles",
        "isFavorite": false,
        "isFeatured": false,
        "imageName": "LogoDark"
    },
    {
        "id": 1124,
        "name": "The Pool Club",
        "address":	"550 Baronne St",
        "city":	"New Orleans",
        "state":	"LA",
        "zipcode":	"70113",
        "neighborhood":	"Downtown",
        "type":	"Cocktail",
        "category": "Bar",
        "coordinates": {
            "latitude": 29.94913,
            "longitude": -90.07309
        },
        "description": "",
        "isFavorite": false,
        "isFeatured": false,
        "imageName": "LogoLight"
    },
    {
        "id": 1125,
        "name": "The Chandelier Bar",
        "address":	"2 Canal St",
        "city":	"New Orleans",
        "state":	"LA",
        "zipcode":	"70130",
        "neighborhood":	"Downtown",
        "type":	"Upscale",
        "category": "Bar",
        "coordinates" : {
            "latitude": 29.94904,
            "longitude": -90.06380
        },
        "description": "",
        "isFavorite": false,
        "isFeatured": false,
        "imageName": "LogoDark"
    },
    {
        "id": 1126,
        "name": "Peacock Room",
        "address": "501 Tchoupitoulas St",
        "city":	"New Orleans",
        "state":	"LA",
        "zipcode":	"70130",
        "neighborhood":	"Downtown",
        "type":	"Cocktail",
        "category": "Bar",
        "coordinates": {
            "latitude": 29.94875,
            "longitude": -90.06737
        },
        "description": "Upscale cocktail bar in chic surrounds",
        "isFavorite": false,
        "isFeatured": false,
        "imageName": "LogoLight"
    },		
    {
        "id": 1127,
        "name": "The Bower Bar",
        "address":	"1320 Magazine St",
        "city":	"New Orleans",
        "state":	"LA",
        "zipcode":	"70130",
        "neighborhood":	"Garden District",
        "type":	"Cocktail",
        "category": "Bar",
        "coordinates": {
            "latitude": 29.93811,
            "longitude": -90.07132
        },
        "description": " ",
        "isFavorite": false,
        "isFeatured": false,
        "imageName": "LogoDark"
    },
    {
        "id": 1128,
        "name": "Vals",
        "address":	"4632 Freret St",
        "city":	"New Orleans",
        "state":	"LA",
        "zipcode":	"70115",
        "neighborhood":	"Uptown",
        "type":	"Mexican",
        "category": "Bar",
        "coordinates": {
            "latitude": 29.93497,
            "longitude": -90.10618
        },
        "description": "Relaxed eatery serving tacos & nachos",
        "isFavorite": false,
        "isFeatured": false,
        "imageName": "LogoLight"
    },
    {
        "id": 1130,
        "name": "New Orleans Art Bar",
        "address":	"2128 St Claude Ave",
        "city":	"New Orleans",
        "state":	"LA",
        "zipcode":	"70116",
        "neighborhood":	"Marigny",
        "type":	"Cocktail",
        "category": "Bar",
        "coordinates": {
            "latitude": 29.96858,
            "longitude": -90.05743
        },
        "description": " ",
        "isFavorite": false,
        "isFeatured": false,
        "imageName": "LogoDark"
    },
    {
        "id": 1131,
        "name": "The Elysian Bar",
        "address":	"2317 Burgundy St",
        "city":	"New Orleans",
        "state":	"LA",
        "zipcode":	"70117",
        "neighborhood":	"Marigny",
        "type":	"Cocktail",
        "category": "Bar",
        "coordinates": {
            "latitude": 29.96708,
            "longitude": -90.05493
        },
        "description": " ",
        "isFavorite": false,
        "isFeatured": true,
        "imageName": "LogoLight"
    },
    {
        "id": 1132,
        "name": "Bacchanal Fine Wine & Spirits",
        "address":	"600 Poland Ave",
        "city":	"New Orleans",
        "state":	"LA",
        "zipcode":	"70117",
        "neighborhood":	"Bywater",
        "type":	"Wine",
        "category": "Bar",
        "coordinates": {
            "latitude": 29.95999,
            "longitude": -90.03319
        },
        "description": "Backyard bistro at a wine shop",
        "isFavorite": false,
        "isFeatured": false,
        "imageName": "LogoDark"
    },
    {
        "id": 1133,
        "name": "Jewel of the South",
        "address":	"1026 St Louis St",
        "city":	"New Orleans",
        "state":	"LA",
        "zipcode":	"70112",
        "neighborhood":	"French Quarter",
        "type":	"Cocktail",
        "category":"Bar",
        "coordinates": {
            "latitude": 29.95872,
            "longitude": -90.06942
        },
        "description": "Refined dining with a garden courtyard",
        "isFavorite": false,
        "isFeatured": false,
        "imageName": "LogoLight"
    },
    {
        "id": 1134,
        "name": "Copper Vine",
        "address":	"1001 Poydras St",
        "city":	"New Orleans",
        "state":	"LA",
        "zipcode":	"70112",
        "neighborhood":	"Downtown",
        "type":	"Wine",
        "category": "Bar",
        "coordinates": {
            "latitude": 29.95087,
            "longitude": -90.07450
        },
        "description": "Stylish wine bar with a leafy patio",
        "isFavorite": false,
        "isFeatured": true,
        "imageName": "LogoDark"
    },
    {
        "id": 1135,
        "name": "The Delachaise Wine Bar",
        "address":	"3442 St Charles Ave",
        "city":	"New Orleans",
        "state":	"LA",
        "zipcode":	"70115",
        "neighborhood":	"Uptown",
        "type":	"Wine",
        "category": "Bar",
        "coordinates": {
            "latitude": 29.92769,
            "longitude": -90.09267
        },
        "description": "Chic wine bar with upscale bites",
        "isFavorite": false,
        "isFeatured": false,
        "imageName": "LogoLight"
    },
    {
        "id": 1136,
        "name": "Bayou Beer Garden",
        "address":	"326 N Norman C Francis Pkwy",
        "city":	"New Orleans",
        "state":	"LA",
        "zipcode":	"70119",
        "neighborhood":	"Mid City",
        "type":	"Beer Garden",
        "category": "Bar",
        "coordinates": {
            "latitude": 29.97217,
            "longitude": -90.09171
        },
        "description": "Sports bar in a cottage with a porch",
        "isFavorite": false,
        "isFeatured": true,
        "imageName": "LogoDark"
    },
    {
        "id": 1137,
        "name": "The Avenue Pub",
        "address":	"1732 St Charles Ave",
        "city":	"New Orleans",
        "state":	"LA",
        "zipcode":	"70130",
        "neighborhood":	"Garden District",
        "type":	"Pub",
        "category":"Bar",
        "coordinates": {
            "latitude": 29.93705,
            "longitude": -90.07685
        },
        "description": "Craft beers galore & upscale pub grub",
        "isFavorite": false,
        "isFeatured": false,
        "imageName": "LogoLight"
    },
    {
        "id": 1138,
        "name": "Bywater Brew Pub",
        "address":	"3000 Royal St",
        "city":	"New Orleans",
        "state":	"LA",
        "zipcode":	"70117",
        "neighborhood":	"Bywater",
        "type":	"Pub",
        "category": "Bar",
        "coordinates": {
            "latitude": 29.96396,
            "longitude": -90.04716
        },
        "description": " ",
        "isFavorite": false,
        "isFeatured": false,
        "imageName": "LogoDark"
    },
    {
        "id": 1139,
        "name": "Bakery Bar",
        "address":	"1179 Annunciation St",
        "city":	"New Orleans",
        "state":	"LA",
        "zipcode":	"70130",
        "neighborhood":	"Garden District",
        "type":	"Bakery",
        "category": "Bar",
        "coordinates": {
            "latitude": 29.93913,
            "longitude": -90.06871
        },
        "description": "Cake & cocktails in a rustic setting",
        "isFavorite": false,
        "isFeatured": false,
        "imageName": "LogoLight"
    },
    {
        "id": 1140,
        "name": "St. Joe’s Bar",
        "address": "5535 Magazine St",
        "city":	"New Orleans",
        "state":	"LA",
        "zipcode":	"70115",
        "neighborhood":	"Uptown",
        "type":	"Cocktail",
        "category": "Bar",
        "coordinates": {
            "latitude": 29.92141,
            "longitude": -90.11701
        },
        "description": "Cozy pub with a patio & church decor",
        "isFavorite": false,
        "isFeatured": false,
        "imageName": "LogoDark"
    },
    {
        "id": 1141,
        "name": "Cure",
        "address":	"4905 Freret St",
        "city":	"New Orleans",
        "state":	"LA",
        "zipcode":	"70115",
        "neighborhood":	"Uptown",
        "type":	"Cocktail",
        "category": "Bar",
        "coordinates": {
            "latitude": 29.93524,
            "longitude": -90.10743
        },
        "description": "Stylish lounge with craft cocktails",
        "isFavorite": false,
        "isFeatured": false,
        "imageName": "LogoLight"
    },
    {
        "id": 1142,
        "name": "Zony Mash Beer Project",
        "address":	"3940 Thalia St",
        "city":	"New Orleans",
        "state":	"LA",
        "zipcode":	"70125",
        "neighborhood":	"Mid City",
        "type":	"Brewery",
        "category": "Bar",
        "coordinates": {
            "latitude": 29.95224,
            "longitude": -90.09763
        },
        "description": " ",
        "isFavorite": false,
        "isFeatured": false,
        "imageName": "LogoDark"
    },
    {
        "id": 1143,
        "name": "Columns",
        "address":	"3811 St Charles Ave",
        "city":	"New Orleans",
        "state":	"LA",
        "zipcode":	"70115",
        "neighborhood":	"Uptown",
        "type":	"Outdoor",
        "category": "Bar",
        "coordinates": {
            "latitude": 29.92741,
            "longitude": -90.09615
        },
        "description": "Ornate 1883 lodging with a bistro",
        "isFavorite": false,
        "isFeatured": false,
        "imageName": "LogoLight"
    },
    {
        "id": 1145,
        "name": "Bayou Wine Garden",
        "address":	"326 N Norman C Francis Pkwy",
        "city":	"New Orleans",
        "state":	"LA",
        "zipcode":	"70119",
        "neighborhood":	"Mid City",
        "type":	"Wine",
        "category": "Bar",
        "coordinates": {
            "latitude": 29.97163,
            "longitude": -90.09120
        },
        "description": "Cozy wine bar with Southern-style bites",
        "isFavorite": false,
        "isFeatured": false,
        "imageName": "LogoDark"
    },
    {
        "id": 1146,
        "name": "Hot Tin",
        "address":	"2031 St Charles Ave FL 14",
        "city":	"New Orleans",
        "state":	"LA",
        "zipcode":	"70130",
        "neighborhood":	"Central City",
        "type":	"Hotel",
        "category": "Bar",
        "coordinates": {
            "latitude": 29.93530,
            "longitude": -90.07975
        },
        "description": "Cool rooftop bar for cocktails & view",
        "isFavorite": false,
        "isFeatured": false,
        "imageName": "LogoLight"
    },
    {
        "id": 1147,
        "name": "Ingenue",
        "address":	"1111 Gravier St",
        "city":	"New Orleans",
        "state":	"LA",
        "zipcode":	"70112",
        "neighborhood":	"Downtown",
        "type":	"Hotel",
        "category": "Bar",
        "coordinates": {
            "latitude": 29.95345,
            "longitude": -90.07438
        },
        "description": "Funky rooftop bar for cocktails & bites",
        "isFavorite": false,
        "isFeatured": false,
        "imageName": "LogoDark"
    },
    {
        "id": 1148,
        "name": "MRB Bar & Kitchen",
        "address":	"515 St Philip St",
        "city":	"New Orleans",
        "state":	"LA",
        "zipcode":	"70116",
        "neighborhood":	"French Quarter",
        "type": "neighborhood",
        "category": "Bar",
        "coordinates": {
            "latitude": 29.95956,
            "longitude": -90.06093
        },
        "description": "Chill bar with a patio & a big beer menu",
        "isFavorite": false,
        "isFeatured": false,
        "imageName": "LogoLight"
    },
    {
        "id": 1150,
        "name": "Parleaux Beer Lab",
        "address":	"634 Lesseps St",
        "city":	"New Orleans",
        "state":	"LA",
        "zipcode":	"70117",
        "neighborhood":	"Bywater",
        "type":	"Brewery",
        "category": "Bar",
        "coordinates": {
            "latitude": 29.96089,
            "longitude": -90.03394
        },
        "description": "Funky, microbrew taproom with a patio",
        "isFavorite": false,
        "isFeatured": false,
        "imageName": "LogoDark"
    },
    {
        "id": 1151,
        "name": "The Rooftop at Selina Catahoula",
        "address":	"914 Union St",
        "city":	"New Orleans",
        "state":	"LA",
        "zipcode":	"70112",
        "neighborhood":	"Downtown",
        "type":	"Hotel",
        "category": "Bar",
        "coordinates": {
            "latitude": 29.95198,
            "longitude": -90.07318
        },
        "description": " ",
        "isFavorite": false,
        "isFeatured": false,
        "imageName": "LogoLight"
    },
    {
        "id": 1152,
        "name": "Above The Grid",
        "address":	"317 Baronne St",
        "city":	"New Orleans",
        "state":	"LA",
        "zipcode":	"70112",
        "neighborhood":	"Downtown",
        "type":	"Hotel",
        "category":"Bar",
        "coordinates": {
            "latitude": 29.95216,
            "longitude": -90.07276
        },
        "description": " ",
        "isFavorite": false,
        "isFeatured": false,
        "imageName": "LogoDark"
    },
    {
        "id": 1153,
        "name": "Alto at the Ace Hotel",	
        "address": "600 Carondelet St",	
        "city": "New Orleans",
        "state": "LA",
        "zipcode": "70130",
        "neighborhood": "Downtown",	
        "type": "Hotel",
        "category": "Bar",
        "coordinates": {
            "latitude": 29.94855,
            "longitude": -90.07222
        },
        "description": " ",
        "isFavorite": false,
        "isFeatured": false,
        "imageName": "LogoLight"
    },
    {
        "id": 1154,
        "name": "Rosie’s on the Roof",	
        "address": "1000 Magazine St",	
        "city": "New Orleans",
        "state": "LA",
        "zipcode": "70130",
        "neighborhood": "Downtown",
        "type": "Hotel",
        "category": "Bar",
        "coordinates": {
            "latitude": 29.94275,
            "longitude": -90.06974
        },
        "description": " ",
        "isFavorite": false,
        "isFeatured": false,
        "imageName": "LogoDark"
    },
    {
        "id": 1155,
        "name": "Mambo’s",	
        "address": "411 Bourbon St",	
        "city": "New Orleans",	
        "state": "LA",	
        "zipcode": "70130",	
        "neighborhood": "French Quarter",	
        "type": "Bourbon",
        "category": "Bar",
        "coordinates": {
            "latitude": 29.95680,
            "longitude": -90.06761
        },
        "description": "Relaxed eatery for Cajun & Creole dishes",
        "isFavorite": false,
        "isFeatured": false,
        "imageName": "LogoLight"
    }							   
]
