[
    {
      "id": "1",
      "name": "Cafe Du Monde",
      "type": "cafe",
      "description": "Iconic New Orleans caf√© with beignets & coffee.",
      "tags": ["touristy", "casual", "coffee"],
      "address": "800 Decatur St",
      "city": "New Orleans",
      "state": "LA",
      "zipcode": "70116",
      "location": { "lat": 29.95869, "lng": -90.06209 },
      "priceLevel": 1,
      "rating": 4.5,
      "imageUrl": "https://example.com/cafe.jpg",
      "website": "https://cafedumonde.com"
    },
    {
      "id": "2",
      "name": "Frenchmen Art Market",
      "type": "attraction",
      "description": "",
      "tags": ["artsy", "night", "shopping"],
      "address": "619 Frenchmen St",
      "city": "New Orleans",
      "state": "LA",
      "zipcode": "70116",
      "location": { "lat": 29.96428, "lng": -90.05760 },
      "rating": 4.7,
      "isOpen": true
    },
    {
        "id": "3",
        "name": "Addis Nola",
        "type": "restaurant",
        "description": "",
        "tags": [ "Restaurant", "Ethiopian", "Essential" ],
        "address": "2514 Bayou Rd",
        "city": "New Orleans",
        "state": "LA",
        "zipcode": "70119",
        "location": { "lat": 29.97651, "lng": -90.07659 },
        "priceLevel": 2,
        "rating": null,
        "imageUrl": "",
        "website": "https://www.addisnola.com"
    },
    {
        "id": "4",
        "name": "Apolline",
        "type": "restaurant",
        "description": "",
        "tags": [ "Breakfast", "Restaurant", "Kid Friendly", "Brunch"],
        "address": "4729 Magazine St",
        "city":"New Orleans",
        "state":"LA",
        "zipcode": "70115",
        "location": { "lat": 29.9214, "lng": -90.1059 },
        "priceLevel": 2,
        "rating": null,
        "imageUrl": "",
        "website": "http://www.apollinerestaurant.com"
    },
    {
        "id": "5",
        "name": "Arnaud\u2019s",
        "type": "restaurant",
        "description": "",
        "tags": ["Restaurant", "Essential", "Local"],
        "address": "813 Bienville St",
        "city":"New Orleans",
        "state": "LA",
        "zipcode": "70112",
        "location": { "lat": 29.9559, "lng": -90.0687 },
        "priceLevel": 3,
        "rating": null,
        "imageUrl": "",
        "website": "http://www.arnaudsrestaurant.com/"
    },
    {
        "id": "6",
        "name": "Atchafalaya",
        "type": "restaurant",
        "description": "",
        "tags": [ "Restaurant", "Brunch", "Local" ],
        "address": "901 Louisiana Ave",
        "city": "New Orleans",
        "state":"LA",
        "zipcode": "70115",
        "location": { "lat": 29.92148, "lng": -90.08776 },
        "priceLevel": null,
        "rating": null,
        "imageUrl": "",
        "website": "https://www.atchafalayarestaurant.com"
    },
    {
        "id": "7",
        "name": "Bar Brine",
        "type": "bar",
        "description": "",
        "tags": [ "Bar", "Vegetarian", "Restaurant" ],
        "address": "3200 Burgundy St",
        "city":"New Orleans",
        "state":"LA",
        "zipcode": "70117",
        "location": { "lat": 29.96526, "lng": -90.04294 },
        "priceLevel": null,
        "rating": null,
        "imageUrl": "",
        "website": "https://www.yousneakypickle.com"
    },
    {
        "id": "8",
        "name": "Barracuda",
        "type": "restaurant",
        "description": "",
        "tags": [ "Outdoor Dining", "Mexican", "Restaurant" ],
        "address": "3984 Tchoupitoulas St",
        "city": "New Orleans",
        "state":"LA",
        "zipcode": "70115",
        "location": { "lat": 29.92360, "lng": -90.09452 },
        "priceLevel": null,
        "rating": null,
        "imageUrl": "",
        "website": "https://eatbarracuda.com"
    },
    {
        "id": "9",
        "name": "Basin Seafood and Spirits",
        "type": "restaurant",
        "description": "",
        "tags": [ "Restaurant", "Seafood", "Brunch" ],
        "address": "3222 Magazine St",
        "city":"New Orleans",
        "state":"LA",
        "zipcode":"70115",
        "location": { "lat": 29.92389, "lng": -90.08701 },
        "priceLevel": 2,
        "rating": null,
        "imageUrl": "",
        "website": "http://basinseafood.com/"
    },
    {
        "id": "10",
        "name": "Bayona",
        "type": "restaurant",
        "description": "",
        "tags": [ "Outdoor Dining", "Restaurant", "Global" ],
        "address": "430 Dauphine St",
        "city":"New Orleans",
        "state":"LA",
        "zipcode":"70112",
        "location": { "lat": 29.95760, "lng": -90.06816 },
        "priceLevel": 3,
        "rating": null,
        "imageUrl": "",
        "website": "http://www.bayona.com/"
    },
    {
        "id": "11",
        "name": "Bearcat Cafe",
        "type": "restaurant",
        "description": "",
        "tags": [ "Restaurant", "Vegan" ],
        "address": "2521 Jena St",
        "city":"New Orleans",
        "state":"LA",
        "zipcode":"70115",
        "location": { "lat": 29.93609, "lng": -90.10390 },
        "priceLevel": null,
        "rating": null,
        "imageUrl": "",
        "website": "http://www.bearcatcafe.com/"
    },
    {
        "id": "12",
        "name": "Bearcat CBD",
        "type": "restaurant",
        "description": "",
        "tags": [ "Restaurant", "Breakfast"],
        "address": "845 Carondelet St",
        "city": "New Orleans",
        "state":"LA",
        "zipcode": "70130",
        "location": { "lat": 29.94548,  "lng": -90.07342 },
        "priceLevel": null,
        "rating": null,
        "imageUrl": "",
        "website": ""
    },
    {
        "id": "13",
        "name": "B\u00e9same",
        "type": "restaurant",
        "description": "",
        "tags": [ "Restaurant", "Tapas", "Happy Hour" ],
        "address": "110 S Rampart St",
        "city": "New Orleans",
        "state":"LA",
        "zipcode":"70112",
        "location": { "lat": 29.95532, "lng": -90.07290 },
        "priceLevel": 2,
        "rating": null,
        "imageUrl": "",
        "website": ""
    },
    {
        "id": "14",
        "name": "Blue Oak BBQ",
        "type": "restaurant",
        "description": "",
        "tags": [ "Restaurant",  "Outdoor Dining", "Barbecue" ],
        "address": "900 N Carrolton Ave",
        "city":"New Orleans",
        "state":"LA",
        "zipcode":"70119",
        "location": {  "lat": 29.98062,  "lng": -90.09361 },
        "priceLevel": 2,
        "rating": null,
        "imageUrl": "",
        "website": ""
    },
    {
        "id": "15",
        "name": "Botanicals Nola",
        "type": "restaurant",
        "description": "",
        "tags": [  "Restaurant",  "Vegan"  ],
        "address": "2401 St Claude Ave",
        "city": "New Orleans",
        "state":"LA",
        "zipcode":"70117",
        "location": {  "lat": 29.96940, "lng": -90.05189 },
        "priceLevel": null,
        "rating": null,
        "imageUrl": "",
        "website": ""
    },
    {
        "id": "16",
        "name": "Maze Cocktail Lounge",
        "type": "bar",
        "description": "",
        "tags": [ "Cocktail", "Bar",  "Happy Hour" ],
        "address": "5123 Canal Blvd",
        "city":"New Orleans",
        "state":"LA",
        "zipcode":"70124",
        "location": {  "lat": 29.98362,  "lng": -90.11015  },
        "priceLevel": null,
        "rating": null,
        "imageUrl": "",
        "website": ""
    },
    {
        "id": "17",
        "name": "Bouligny Tavern",
        "type": "bar",
        "description": "",
        "tags": [ "Bar",  "Restaurant", "Late Night" ],
        "address": "3641 Magazine St",
        "city":"New Orleans",
        "state":"LA",
        "zipcode":"70115",
        "location": {  "lat": 29.92225,  "lng": -90.09300 },
        "priceLevel": null,
        "rating": null,
        "imageUrl": "",
        "website": ""
    },
    {
        "id": "18",
        "name": "Bratz Y\u2019all! Bistro, Bakery, Biergarten",
        "type": "restaurant",
        "description": "",
        "tags": [  "Beer Garden", "German", "Kid Friendly", "Restaurant" ],
        "address": "617-B Piety",
        "city":"New Orleans",
        "state":"LA",
        "zipcode":"70117",
        "location": { "lat": 29.96267, "lng": -90.04315 },
        "priceLevel": null,
        "rating": null,
        "imageUrl": "",
        "website": ""
    },
    {
        "id": "19",
        "name": "Breads on Oak",
        "type": "restaurant",
        "description": "",
        "tags": [  "Restaurant", "Vegan", "Bakery"],
        "address": "8640 Oak St Suite A",
        "city":"New Orleans",
        "state": "LA",
        "zipcode": "70118",
        "location": {  "lat": 29.95810,  "lng": -90.13375 },
        "priceLevel": null,
        "rating": null,
        "imageUrl": "",
        "website": ""
    },
    {
        "id": "20",
        "name": "Station 6",
        "type": "restaurant",
        "description": "",
        "tags": [ "Seafood", "Restaurant", "Local"  ],
        "address": "105 Metairie-Hammond Hwy",
        "city":"Metairie",
        "state":"LA",
        "zipcode":"70005",
        "location": { "lat": 30.02057,  "lng": -90.12221 },
        "priceLevel": null,
        "rating": null,
        "imageUrl": "",
        "website": ""
    },
    {
        "id": "21",
        "name": "Brennan\u2019s",
        "type": "restaurant",
        "description": "",
        "tags": [  "Restaurant",  "Local",  "Happy Hour" ],
        "address": "417 Royal St",
        "city": "New Orleans",
        "state":"LA",
        "zipcode":"70130",
        "location": { "lat": 29.95624, "lng": -90.06664 },
        "priceLevel": null,
        "rating": null,
        "imageUrl": "",
        "website": ""
    },
    {
        "id": "22",
        "name": "Brigtsen\u2019s Restaurant",
        "type": "restaurant",
        "description": "",
        "tags": [ "Restaurant", "Essential", "Local" ],
        "address": "723 Dante St",
        "city": "New Orleans",
        "state": "LA",
        "zipcode":"70118",
        "location": {  "lat": 29.94607,  "lng": -90.13477 },
        "priceLevel": 3,
        "rating": null,
        "imageUrl": "",
        "website": ""
    },
    {
        "id": "23",
        "name": "Broussard\u2019s Restaurant & Courtyard",
        "type": "restaurant",
        "description": "",
        "tags": [ "Creole", "Restaurant", "Brunch" ],
        "address": "819 Conti St",
        "city":"New Orleans",
        "state":"LA",
        "zipcode":"70112",
        "location": { "lat": 29.95711, "lng": -90.06799 },
        "priceLevel": null,
        "rating": null,
        "imageUrl": "",
        "website": ""
    },
    {
        "id": "24",
        "name": "Cafe Degas",
        "type": "restaurant",
        "description": "",
        "tags": [ "Restaurant", "French", "Essential" ],
        "address": "3127 Esplanade Ave",
        "city": "New Orleans",
        "state": "LA",
        "zipcode":"70119",
        "location": { "lat": 29.98062, "lng": -90.08432 },
        "priceLevel": null,
        "rating": null,
        "imageUrl": "",
        "website": ""
    },
    {
        "id": "25",
        "name": "Caf\u00e9 Reconcile",
        "type": "restaurant",
        "description": "",
        "tags": [ "Restaurant", "Essential", "Local" ],
        "address": "1631 Oretha Castle Haley Blvd",
        "city":"New Orleans",
        "state":"LA",
        "zipcode":"70113",
        "location": { "lat": 29.94034, "lng": -90.08042 },
        "priceLevel": null,
        "rating": null,
        "imageUrl": "",
        "website": ""
    },
    {
        "id": "26",
        "name": "Cane and Table",
        "type": "restaurant",
        "description": "",
        "tags": [ "Outdoor Dining", "Tropical", "Restaurant" ],
        "address": "1113 Decatur St",
        "city":"New Orleans",
        "state":"LA",
        "zipcode":"70116",
        "location": { "lat": 29.96050, "lng": -90.05989 },
        "priceLevel": null,
        "rating": null,
        "imageUrl": "",
        "website": ""
    },
    {
        "id": "27",
        "name": "Capulet",
        "type": "restaurant",
        "description": "",
        "tags": [ "Restaurant", "Tapas", "Happy Hour" ],
        "address": "3014 Dauphine St",
        "city": "New Orleans",
        "state": "LA",
        "zipcode": "70117",
        "location": { "lat": 29.96487, "lng": -90.04645 },
        "priceLevel": 2,
        "rating": null,
        "imageUrl": "",
        "website": ""
    },
    {
        "id": "28",
        "name": "Casamento\u2019s Restaurant",
        "type": "restaurant",
        "description": "",
        "tags": [ "Restaurant", "Essential", "Local" ],
        "address": "4330 Magazine St",
        "city":"New Orleans",
        "state":"LA",
        "zipcode": "70115",
        "location": { "lat": 29.92111, "lng": -90.10119 },
        "priceLevel": null,
        "rating": null,
        "imageUrl": "",
        "website": ""
    },
    {
        "id": "29",
        "name": "Charlie\u2019s Steak House",
        "type": "restaurant",
        "description": "",
        "tags": [ "Restaurant",  "Essential",  "Steakhouse" ],
        "address": "4510 Dryades St",
        "city":"New Orleans",
        "state":"LA",
        "zipcode":"70115",
        "location": { "lat": 29.92974, "lng": -90.10426 },
        "priceLevel": null,
        "rating": null,
        "imageUrl": "",
        "website": ""
    },
    {
        "id": "30",
        "name": "Chemin a la Mer",
        "type": "restaurant",
        "description": "",
        "tags": [  "Restaurant", "French" ],
        "address": "2 Canal St",
        "city": "New Orleans",
        "state": "LA",
        "zipcode": "70130",
        "location": { "lat": 29.94955, "lng": -90.06383 },
        "priceLevel": null,
        "rating": null,
        "imageUrl": "",
        "website": ""
    },
    {
        "id": "31",
        "name": "Rosella",
        "type": "restaurant",
        "description": "",
        "tags": [ "Wine", "Bar", "Restaurant", "Happy Hour" ],
        "address": "139 S Cortez St",
        "city": "New Orleans",
        "state": "LA",
        "zipcode": "70119",
        "location": { "lat": 29.97199, "lng": -90.09843 },
        "priceLevel": null,
        "rating": null,
        "imageUrl": "",
        "website": ""
    },
    {
        "id": "32",
        "name": "Cleo\u2019s Mediterranean Cuisine",
        "type": "restaurant",
        "description": "",
        "tags": [ "Restaurant", "Mediterranean", "Late Night" ],
        "address": "117 Decatur St",
        "city": "New Orleans",
        "state": "LA",
        "zipcode": "70130",
        "location": { "lat": 29.95266, "lng": -90.06687 },
        "priceLevel": null,
        "rating": null,
        "imageUrl": "",
        "website": ""
    },
    {
        "id": "33",
        "name": "Commander\u2019s Palace",
        "type": "restaurant",
        "description": "",
        "tags": [ "Restaurant", "Essential", "Local" ],
        "address": "1403 Washington Ave",
        "city":"New Orleans",
        "state": "LA",
        "zipcode": "70130",
        "location": { "lat": 29.92892, "lng": -90.08424 },
        "priceLevel": null,
        "rating": null,
        "imageUrl": "",
        "website": ""
    },
    {
        "id": "34",
        "name": "Comp\u00e9re Lapin",
        "type": "restaurant",
        "description": "",
        "tags": [ "Restaurant", "Essential", "Carribbean" ],
        "address": "535 Tchoupitoulas St",
        "city": "New Orleans",
        "state":"LA",
        "zipcode": "70130",
        "location": { "lat": 29.94802, "lng": -90.06735 },
        "priceLevel": 3,
        "rating": null,
        "imageUrl": "",
        "website": ""
    },
    {
        "id": "35",
        "name": "Cooter Brown\u2019s Tavern & Oyster Bar",
        "type": "restaurant",
        "description": "",
        "tags": [ "Restaurant", "Local", "Late Night" ],
        "address": "509 S Carrollton Ave",
        "city": "New Orleans",
        "state":"LA",
        "zipcode": "70118",
        "location": { "lat": 29.94254, "lng": -90.13440 },
        "priceLevel": null,
        "rating": null,
        "imageUrl": "",
        "website": ""
    },
    {
        "id": "36",
        "name": "Coquette",
        "type": "restaurant",
        "description": "",
        "tags": [  "Restaurant", "Experimental",  "Essential" ],
        "address": "2800 Magazine St",
        "city": "New Orleans",
        "state": "LA",
        "zipcode": "70115",
        "location": {  "lat": 29.92651,  "lng": -90.08247 },
        "priceLevel": null,
        "rating": null,
        "imageUrl": "",
        "website": ""
    },
    {
        "id": "37",
        "name": "Couvant at The Eliza Jane Hotel",
        "type": "restaurant",
        "description": "",
        "tags": [ "Restaurant", "Brasserie" ],
        "address": "315 Magazine St",
        "city": "New Orleans",
        "state": "LA",
        "zipcode": "70130",
        "location": { "lat": 29.95012, "lng": -90.06797 },
        "priceLevel": null,
        "rating": null,
        "imageUrl": "",
        "website": ""
    },
    {
        "id": "38",
        "name": "Cr\u00eapes \u00e1 la Cart",
        "type": "restaurant",
        "description": "",
        "tags": [ "Restaurant",  "French", "Late Night" ],
        "address": "8837 Willow St",
        "city": "New Orleans",
        "state": "LA",
        "zipcode": "70118",
        "location": { "lat": 29.95442, "lng": -90.13467 },
        "priceLevel": null,
        "rating": null,
        "imageUrl": "",
        "website": ""
    },
    {
        "id": "39",
        "name": "Domilise\u2019s Po-Boy & Bar",
        "type": "restaurant",
        "description": "",
        "tags": [ "Restaurant", "Essential", "Local" ],
        "address": "5240 Annunciation St",
        "city": "New Orleans",
        "state":"LA",
        "zipcode":"70115",
        "location": { "lat": 29.91774, "lng": -90.11235  },
        "priceLevel": null,
        "rating": null,
        "imageUrl": "",
        "website": ""
    },
    {
        "id": "40",
        "name": "Dooky Chase Restaurant",
        "type": "restaurant",
        "description": "",
        "tags": [ "Restaurant", "Essential", "Local" ],
        "address": "2301 Orleans Ave",
        "city": "New Orleans",
        "state": "LA",
        "zipcode": "70119",
        "location": { "lat": 29.96856, "lng": -90.07849 },
        "priceLevel": null,
        "rating": null,
        "imageUrl": "",
        "website": ""
    },
    {
        "id": "41",
        "name": "El Pavo Real",
        "type": "restaurant",
        "description": "",
        "tags": [ "Restaurant", "Breakfast" ],
        "address": "4401 S Broad Ave",
        "city": "New Orleans",
        "state":"LA",
        "zipcode": "70125",
        "location": { "lat": 29.94930, "lng": -90.10439 },
        "priceLevel": null,
        "rating": null,
        "imageUrl": "",
        "website": ""
    },
    {
        "id": "42",
        "name": "Fritai",
        "type": "restaurant",
        "description": "",
        "tags": [ "Restaurant", "Haitian", "Essential" ],
        "address": "1535 Basin St",
        "city": "New Orleans",
        "state":"LA",
        "zipcode": "70116",
        "location": { "lat": 29.96410, "lng": -90.07189 },
        "priceLevel": null,
        "rating": null,
        "imageUrl": "",
        "website": ""
    },
    {
        "id": "43",
        "name": "Porgys",
        "type": "restaurant",
        "description": "",
        "tags": [ "Restaurant", "Happy Hour", "Local" ],
        "address": "236 N Carrollton Ave",
        "city": "New Orleans",
        "state":"LA",
        "zipcode":"70119",
        "location": { "lat": 29.97600, "lng": -90.09880 },
        "priceLevel": null,
        "rating": null,
        "imageUrl": "",
        "website": ""
    },
    {
        "id": "44",
        "name": "Galaxie",
        "type": "restaurant",
        "description": "",
        "tags": [ "Restaurant", "Mexican", "Kid Friendly", "Happy Hour" ],
        "address": "3060 St Claude Ave",
        "city":"New Orleans",
        "state":"LA",
        "zipcode":"70117",
        "location": { "lat": 29.96782, "lng": -90.04472 },
        "priceLevel": null,
        "rating": null,
        "imageUrl": "",
        "website": ""
    },
    {
        "id": "45",
        "name": "Gris-Gris",
        "type": "restaurant",
        "description": "",
        "tags": [ "Restaurant", "Brunch", "Local" ],
        "address": "1800 Magazine St",
        "city": "New Orleans",
        "state": "LA",
        "zipcode": "70130",
        "location": { "lat": 29.93195, "lng": -90.07347 },
        "priceLevel": null,
        "rating": null,
        "imageUrl": "",
        "website": ""
    },
    {
        "id": "46",
        "name": "GW Fins",
        "type": "restaurant",
        "description": "",
        "tags": [ "Restaurant", "Seafood", "Essential" ],
        "address": "808 Bienville St",
        "city": "New Orleans",
        "state":"LA",
        "zipcode":"70112",
        "location": { "lat": 29.95584, "lng": -90.06875 },
        "priceLevel": null,
        "rating": null,
        "imageUrl": "",
        "website": ""
    },
    {
        "id": "47",
        "name": "Heard Dat Kitchen",
        "type": "restaurant",
        "description": "",
        "tags": [ "Essential", "Local" ],
        "address": "2520 Felicity St",
        "city": "New Orleans",
        "state":"LA",
        "zipcode": "70113",
        "location": { "lat": 29.94426, "lng": -90.08616 },
        "priceLevel": null,
        "rating": null,
        "imageUrl": "",
        "website": ""
    },
    {
        "id": "48",
        "name": "Herbsaint",
        "type": "restaurant",
        "description": "",
        "tags": [ "Essential", "Local" ],
        "address": "701 St. Charles Ave",
        "city": "New Orleans",
        "state":"LA",
        "zipcode": "70130",
        "location": { "lat": 29.94758, "lng": -90.07143 },
        "priceLevel": 2,
        "rating": null,
        "imageUrl": "",
        "website": ""
    },
    {
        "id": "49",
        "name": "HiVolt",
        "type": "restaurant",
        "description": "",
        "tags": [ "Breakfast" ],
        "address": "1829 Sophie Wright Pl",
        "city": "New Orleans",
        "state": "LA",
        "zipcode": "70130",
        "location": { "lat": 29.93247, "lng": -90.07448 },
        "priceLevel": null,
        "rating": null,
        "imageUrl": "",
        "website": ""
    },
    {
        "id": "50",
        "name": "Hoshun",
        "type": "restaurant",
        "description": "",
        "tags": [ "Asian", "Late Night" ],
        "address": "1601 St Charles Ave",
        "city":"New Orleans",
        "state":"LA",
        "zipcode":"70130",
        "location": { "lat": 29.93873, "lng": -90.07653 },
        "priceLevel": 2,
        "rating": null,
        "imageUrl": "",
        "website": ""
    },
    {
        "id": "51",
        "name": "I-tal Garden",
        "type": "restaurant",
        "description": "",
        "tags": [ "Vegan" ],
        "address": "810 N Claiborne Ave",
        "city": "New Orleans",
        "state": "LA",
        "zipcode": "70116",
        "location": { "lat": 29.96499, "lng": -90.07221 },
        "priceLevel": null,
        "rating": null,
        "imageUrl": "",
        "website": ""
    },
    {
        "id": "52",
        "name": "Ideal Market #2",
        "type": "restaurant",
        "description": "",
        "tags": [ "Breakfast" ],
        "address": "250 S Broad St #4",
        "city": "New Orleans",
        "state":"LA",
        "zipcode": "70119",
        "location": { "lat": 29.96435, "lng": -90.08844 },
        "priceLevel": null,
        "rating": null,
        "imageUrl": "",
        "website": ""
    },
    {
        "id": "53",
        "name": "Juniors on Harrison",
        "type": "restaurant",
        "description": "",
        "tags": [ "Restaurant", "Experimental", "Brunch" ],
        "address": "789 Harrison Ave",
        "city": "New Orleans",
        "state":"LA",
        "zipcode":"70124",
        "location": { "lat": 30.00510, "lng": -90.10591 },
        "priceLevel": null,
        "rating": null,
        "imageUrl": "",
        "website": ""
    },
    {
        "id": "54",
        "name": "Katies",
        "type": "restaurant",
        "description": "",
        "tags": [ "Brunch", "Local" ],
        "address": "3701 Iberville St",
        "city":"New Orleans",
        "state":"LA",
        "zipcode":"70119",
        "location": { "lat": 29.97332, "lng": -90.09582 },
        "priceLevel": 2,
        "rating": null,
        "imageUrl": "",
        "website": ""
    },
    {
        "id": "55",
        "name": "Kitchen Table Cafe",
        "type": "restaurant",
        "description": "",
        "tags": ["Restaurant", "Outdoor Dining", "Comfort Food" ],
        "address": "7005 St Claude Ave",
        "city": "Arabi",
        "state": "LA",
        "zipcode":"70032",
        "location": { "lat": 29.95718, "lng": -90.00211 },
        "priceLevel": 1,
        "rating": null,
        "imageUrl": "",
        "website": ""
    },
    {
        "id": "56",
        "name": "La Petite Grocery",
        "type": "restaurant",
        "description": "",
        "tags": [ "Restaurant", "Essential", "Local" ],
        "address": "4238 Magazine St",
        "city": "New Orleans",
        "state":"LA",
        "zipcode":"70115",
        "location": { "lat": 29.92106, "lng": -90.10010 },
        "priceLevel": 3,
        "rating": null,
        "imageUrl": "",
        "website": ""
    },
    {
        "id": "57",
        "name": "Li\u2019l Dizzy\u2019s Cafe",
        "type": "local",
        "description": "",
        "tags": [ "Essential", "Local" ],
        "address": "1500 Esplanade Ave",
        "city": "New Orleans",
        "state":"LA",
        "zipcode":"70116",
        "location": { "lat": 29.96904, "lng": -90.06794 },
        "priceLevel": null,
        "rating": null,
        "imageUrl": "",
        "website": ""
    },
    {
        "id": "58",
        "name": "Lilette",
        "type": "restaurant",
        "description": "",
        "tags": ["Restaurant", "Outdoor Dining", "French" ],
        "address": "3637 Magazine St",
        "city": "New Orleans",
        "state":"LA",
        "zipcode":"70115",
        "location": { "lat": 29.92233, "lng": -90.09263 },
        "priceLevel": 3,
        "rating": null,
        "imageUrl": "",
        "website": ""
    },
    {
        "id": "59",
        "name": "Lilly\u2019s Caf\u00e9",
        "type": "restaurant",
        "description": "",
        "tags": ["Restaurant", "Essential", "Vietnamese" ],
        "address": "1813 Magazine St",
        "city":"New Orleans",
        "state":"LA",
        "zipcode":"70130",
        "location": { "lat": 29.93221, "lng": -90.07346 },
        "priceLevel": null,
        "rating": null,
        "imageUrl": "",
        "website": ""
    },
    {
        "id": "60",
        "name": "Liuzza\u2019s by the Track",
        "type": "restaurant",
        "description": "",
        "tags": [ "Restaurant","Essential", "Local" ],
        "address": "1518 N Lopez St",
        "city": "New Orleans",
        "state": "LA",
        "zipcode": "70119",
        "location": { "lat": 29.98073, "lng": -90.08311 },
        "priceLevel": 1,
        "rating": null,
        "imageUrl": "",
        "website": ""
    },
    {
        "id": "61",
        "name": "Loya\u2019s Mexican Restaurant",
        "type": "breakfast",
        "description": "",
        "tags": [ "Restaurant", "Breakfast" ],
        "address": "3102 Fern St",
        "city":"New Orleans",
        "state":"LA",
        "zipcode":"70125",
        "location": { "lat": 29.96050, "lng": -90.11291 },
        "priceLevel": 1,
        "rating": null,
        "imageUrl": "",
        "website": ""
    },
    {
        "id": "62",
        "name": "Luvi Restaurant",
        "type": "restaurant",
        "description": "",
        "tags": [ "Restaurant", "Essential", "Asian" ],
        "address":"5236 Tchoupitoulas St",
        "city":"New Orleans",
        "state":"LA",
        "zipcode":"70115",
        "location": { "lat": 29.91656, "lng": -90.11216 },
        "priceLevel": 3,
        "rating": null,
        "imageUrl": "",
        "website": ""
    },
    {
        "id": "63",
        "name": "Ma\u00efs Arepas",
        "type": "colombian",
        "description": "",
        "tags": [ "Restaurant", "Essential", "Colombian" ],
        "address": "1200 Carondelet St",
        "city": "New Orleans",
        "state": "LA",
        "zipcode": "70130",
        "location": { "lat": 29.94228, "lng": -90.07493 },
        "priceLevel": 2,
        "rating": null,
        "imageUrl": "",
        "website": ""
    },
    {
        "id": "64",
        "name": "Margot\u2019s",
        "type": "pizza",
        "description": "",
        "tags": [ "Restaurant", "Pizza" ],
        "address": "1243 Frenchmen St",
        "city": "New Orleans",
        "state": "LA",
        "zipcode": "70116",
        "location": { "lat": 29.97049, "lng": -90.05822 },
        "priceLevel": 2,
        "rating": null,
        "imageUrl": "",
        "website": ""
    },
    {
        "id": "65",
        "name": "Marjie\u2019s Grill",
        "type": "restaurant",
        "description": "",
        "tags": [ "Restaurant", "Essential", "Asian" ],
        "address": "320 S Broad St",
        "city": "New Orleans",
        "state":"LA",
        "zipcode":"70119",
        "location": { "lat": 29.96363, "lng": -90.08903 },
        "priceLevel": 2,
        "rating": null,
        "imageUrl": "",
        "website": ""
    },
    {
        "id": "66",
        "name": "Mawi Tortillas",
        "type": "restaurant",
        "description": "",
        "tags": ["Restaurant", "Breakfast", "Mexican" ],
        "address": "5050 W Esplanade Ave Suite C",
        "city":"Metairie",
        "state":"LA",
        "zipcode": "70006",
        "location": {
            "lat": null,
            "lng": null
        },
        "priceLevel": null,
        "rating": null,
        "imageUrl": "",
        "website": ""
    },
    {
        "id": "67",
        "name": "McHardy\u2019s Chicken & Fixin\u2019",
        "type": "restaurant",
        "description": "",
        "tags": [ "Restaurant", "Essential", "Local" ],
        "address": "1458 N Broad St",
        "city":"New Orleans",
        "state":"LA",
        "zipcode":"70119",
        "location": { "lat": 29.97706, "lng": -90.07725 },
        "priceLevel": 1,
        "rating": null,
        "imageUrl": "",
        "website": ""
    },
    {
        "id": "68",
        "name": "Meals From the Heart Cafe",
        "type": "restaurant",
        "description": "",
        "tags": [ "Restaurant", "Vegan" ],
        "address": "1100 N Peters St #13",
        "city": "New Orleans",
        "state": "LA",
        "zipcode": "70116",
        "location": { "lat": 29.96042, "lng": -90.05929 },
        "priceLevel": 1,
        "rating": null,
        "imageUrl": "",
        "website": ""
    },
    {
        "id": "69",
        "name": "Mister Mao",
        "type": "restaurant",
        "description": "",
        "tags": [ "Restaurant", "Bar", "Experimental" ],
        "address": "4501 Tchoupitoulas St",
        "city": "New Orleans",
        "state":"LA",
        "zipcode": "70115",
        "location": { "lat": 29.91732, "lng": -90.10243 },
        "priceLevel": 2,
        "rating": null,
        "imageUrl": "",
        "website": ""
    },
    {
        "id": "70",
        "name": "Mosquito Supper Club",
        "type": "local",
        "description": "",
        "tags": [ "Restaurant", "Outdoor Dining", "Local" ],
        "address": "3824 Dryades St",
        "city":"New Orleans",
        "state": "LA",
        "zipcode":"70115",
        "location": { "lat": 29.92995, "lng": -90.09691 },
        "priceLevel": 4,
        "rating": null,
        "imageUrl": "",
        "website": ""
    },
    {
        "id": "71",
        "name": "Morrows",
        "type": "restaurant",
        "description": "",
        "tags": [ "Restaurant", "Happy Hour", "Local" ],
        "address": "2438 St Claude Ave",
        "city": "New Orleans",
        "state": "LA",
        "zipcode": "70117",
        "location": { "lat": 29.96905, "lng": -90.05099 },
        "priceLevel": 2,
        "rating": null,
        "imageUrl": "",
        "website": ""
    },
    {
        "id": "72",
        "name": "N7",
        "type": "restaurant",
        "description": "",
        "tags": [ "Restaurant", "Outdoor Dining", "French" ],
        "address": "1117 Montegut St",
        "city": "New Orleans",
        "state": "LA",
        "zipcode": "70117",
        "location": { "lat": 29.96884, "lng": -90.04567 },
        "priceLevel": 3,
        "rating": null,
        "imageUrl": "",
        "website": ""
    },
    {
        "id": "73",
        "name": "Nice Guys Bar and Grill",
        "type": "american",
        "description": "",
        "tags": [ "Restaurant", "American", "Late Night" ],
        "address": "7910 Earhart Blvd",
        "city": "New Orleans",
        "state": "LA",
        "zipcode": "70125",
        "location": { "lat": 29.96015, "lng": -90.11371 },
        "priceLevel": 2,
        "rating": null,
        "imageUrl": "",
        "website": ""
    },
    {
        "id": "74",
        "name": "Original Thought NOLA",
        "type": "restaurant",
        "description": "",
        "tags": [ "Restaurant", "Vegan" ],
        "address": "1995 Gentilly Blvd Ste C-5",
        "city": "New Orleans",
        "state": "LA",
        "zipcode": "70119",
        "location": { "lat": 29.98971, "lng": -90.07396 },
        "priceLevel": 1,
        "rating": null,
        "imageUrl": "",
        "website": ""
    },
    {
        "id": "75",
        "name": "Pagoda Caf\u00e9",
        "type": "breakfast",
        "description": "",
        "tags": [ "Restaurant", "Breakfast" ],
        "address": "1430 N Dorgenois St",
        "city": "New Orleans",
        "state": "LA",
        "zipcode": "70119",
        "location": { "lat": 29.97615, "lng": -90.07585 },
        "priceLevel": 1,
        "rating": null,
        "imageUrl": "",
        "website": ""
    },
    {
        "id": "76",
        "name": "Queen Trini Lisa",
        "type": "jamaican",
        "description": "",
        "tags": [ "Restaurant", "Jamaican" ],
        "address": "4200 D'Hemecourt St",
        "city": "New Orleans",
        "state":"LA",
        "zipcode": "70119",
        "location": { "lat": 29.97161, "lng": -90.10633 },
        "priceLevel": 1,
        "rating": null,
        "imageUrl": "",
        "website": ""
    },
    {
        "id": "77",
        "name": "Saffron",
        "type": "restaurant",
        "description": "",
        "tags": [ "Restaurant", "Essential", "Indian" ],
        "address": "4128 Magazine St",
        "city": "New Orleans",
        "state":"LA",
        "zipcode": "70115",
        "location": { "lat": 29.92109, "lng": -90.09882 },
        "priceLevel": 3,
        "rating": null,
        "imageUrl": "",
        "website": ""
    },
    {
        "id": "78",
        "name": "Saint-Germain",
        "type": "restaurant",
        "description": "",
        "tags": [ "Restaurant", "French", "Essential" ],
        "address": "3054 St Claude Ave",
        "city":"New Orleans",
        "state":"LA",
        "zipcode": "70117",
        "location": { "lat": 29.96773, "lng": -90.04475 },
        "priceLevel": 4,
        "rating": null,
        "imageUrl": "",
        "website": "http://saintgermainnola.com/"
    },
    {
        "id": "79",
        "name": "Saint John",
        "type": "creole",
        "description": "",
        "tags": [ "Restaurant", "Creole", "Happy Hour" ],
        "address": "715 St Charles Ave",
        "city": "New Orleans",
        "state": "LA",
        "zipcode": "70130",
        "location": { "lat": 29.94735, "lng": -90.07183 },
        "priceLevel": 3,
        "rating": null,
        "imageUrl": "",
        "website": "http://www.saintjohnnola.com/"
    },
    {
        "id": "80",
        "name": "Santa Fe",
        "type": "tex-mex",
        "description": "",
        "tags": [ "Restaurant", "Outdoor Dining", "Tex-Mex" ],
        "address": "3201 Esplanade Ave",
        "city": "New Orleans",
        "state": "LA",
        "zipcode": "70119",
        "location": { "lat": 29.98120, "lng": -90.08496 },
        "priceLevel": 2,
        "rating": null,
        "imageUrl": "",
        "website": ""
    },
    {
        "id": "81",
        "name": "Satsuma Cafe",
        "type": "restaurant",
        "description": "",
        "tags": [ "Restaurant", "Breakfast" ],
        "address": "3218 Dauphine St",
        "city": "New Orleans",
        "state": "LA",
        "zipcode": "70117",
        "location": { "lat": 29.96866, "lng": -90.04298 },
        "priceLevel": 1,
        "rating": null,
        "imageUrl": "",
        "website": ""
    },
    {
        "id": "82",
        "name": "Seaworthy",
        "type": "restaurant",
        "description": "",
        "tags": [ "Restaurant", "Seafood", "Late Night" ],
        "address": "630 Carondelet St",
        "city": "New Orleans",
        "state":"LA",
        "zipcode": "70130",
        "location": { "lat": 29.94825, "lng": -90.07236 },
        "priceLevel": 3,
        "rating": null,
        "imageUrl": "",
        "website": ""
    },
    {
        "id": "83",
        "name": "Sidecar Patio & Oyster Bar",
        "type": "restaurant",
        "description": "",
        "tags": [ "Restaurant", "Outdoor Dining", "Seafood" ],
        "address": "1114 Constance St",
        "city": "New Orleans",
        "state": "LA",
        "zipcode": "70130",
        "location": { "lat": 29.94075, "lng": -90.06920 },
        "priceLevel": 2,
        "rating": null,
        "imageUrl": "",
        "website": ""
    },
    {
        "id": "84",
        "name": "Slim Goodies Diner",
        "type": "restaurant",
        "description": "",
        "tags": [ "Restaurant", "Breakfast" ],
        "address": "3322 Magazine St",
        "city": "New Orleans",
        "state":"LA",
        "zipcode": "70115",
        "location": { "lat": 29.92342, "lng": -90.08817 },
        "priceLevel": 1,
        "rating": null,
        "imageUrl": "",
        "website": ""
    },
    {
        "id": "85",
        "name": "Small Mart",
        "type": "vegan",
        "description": "",
        "tags": [ "Restaurant", "Vegan" ],
        "address":"2700 Chartres St",
        "city": "New Orleans",
        "state":"LA",
        "zipcode":"70117",
        "location": { "lat": null, "lng": null },
        "priceLevel": null,
        "rating": null,
        "imageUrl": "",
        "website": ""
    },
    {
        "id": "86",
        "name": "Origen Bistro",
        "type": "restaurant",
        "description": "",
        "tags": [ "Restaurant", "Vegan" ],
        "address": "3600 St Claude Ave",
        "city": "New Orleans",
        "state": "LA",
        "zipcode":"70117",
        "location": { "lat": 29.96643, "lng": -90.03877 },
        "priceLevel": 2,
        "rating": null,
        "imageUrl": "",
        "website": ""
    },
    {
        "id": "87",
        "name": "BABs",
        "type": "restaurant",
        "description": "",
        "tags": [ "Restaurant", "Brunch", "Local" ],
        "address": "2900 Chartres St",
        "city":"New Orleans",
        "state":"LA",
        "zipcode":"70117",
        "location": { "lat": 29.96312, "lng": -90.04807 },
        "priceLevel": 3,
        "rating": null,
        "imageUrl": "",
        "website": ""
    },
    {
        "id": "88",
        "name": "Stein\u2019s Market and Deli",
        "type": "restaurant",
        "description": "",
        "tags": [ "Restaurant", "Essential", "Jewish" ],
        "address": "2207 Magazine St",
        "city": "New Orleans",
        "state":"LA",
        "zipcode": "70130",
        "location": { "lat": 29.92970, "lng": -90.07715 },
        "priceLevel": 1,
        "rating": null,
        "imageUrl": "",
        "website": ""
    },
    {
        "id": "89",
        "name": "Sweet Soulfood",
        "type": "restaurant",
        "description": "",
        "tags": [ "Restaurant", "Vegan" ],
        "address": "1025 N Broad St",
        "city": "New Orleans",
        "state": "LA",
        "zipcode": "70119",
        "location": { "lat": 29.97392, "lng": -90.08074 },
        "priceLevel": 1,
        "rating": null,
        "imageUrl": "",
        "website": ""
    },
    {
        "id": "90",
        "name": "Sylvain",
        "type": "restaurant",
        "description": "",
        "tags": [ "Restaurant", "Outdoor Dining", "Gastropub" ],
        "address": "625 Chartres St",
        "city": "New Orleans",
        "state":"LA",
        "zipcode": "70130",
        "location": { "lat": 29.95734, "lng": -90.06413 },
        "priceLevel": null,
        "rating": null,
        "imageUrl": "",
        "website": ""
    },
    {
        "id": "91",
        "name": "T\u00e2n Dinh",
        "type": "restaurant",
        "description": "",
        "tags": [ "Restaurant", "Essential", "Vietnamese" ],
        "address": "1705 Lafayette St",
        "city":"Gretna",
        "state": "LA",
        "zipcode": "70053",
        "location": { "lat": 29.90710, "lng": -90.05373 },
        "priceLevel": null,
        "rating": null,
        "imageUrl": "",
        "website": ""
    },
    {
        "id": "92",
        "name": "Taqueria Guerrero",
        "type": "restaurant",
        "description": "",
        "tags": [ "Restaurant", "Mexican" ],
        "address": "208 N Carrollton Ave",
        "city": "New Orleans",
        "state": "LA",
        "zipcode": "70119",
        "location": { "lat": 29.97586, "lng": -90.09915 },
        "priceLevel": 1,
        "rating": null,
        "imageUrl": "",
        "website": ""
    },
    {
        "id": "93",
        "name": "Thaihey NOLA",
        "type": "restaurant",
        "description": "",
        "tags": [ "Restaurant", "Vegan" ],
        "address": "308 Decatur St",
        "city": "New Orleans",
        "state":"LA",
        "zipcode": "70130",
        "location": { "lat": 29.95383, "lng": -90.06520  },
        "priceLevel": 2,
        "rating": null,
        "imageUrl": "",
        "website": ""
    },
    {
        "id": "94",
        "name": "The Country Club",
        "type": "restaurant",
        "description": "",
        "tags": [ "Restaurant", "Drag Brunch", "Local" ],
        "address": "634 Louisa St",
        "city": "New Orleans",
        "state": "LA",
        "zipcode": "70117",
        "location": { "lat": 29.96327, "lng": -90.04414 },
        "priceLevel": null,
        "rating": null,
        "imageUrl": "",
        "website": ""
    },
    {
        "id": "95",
        "name": "The Daily Beet",
        "type": "restaurant",
        "description": "",
        "tags": [ "Restaurant", "Vegan" ],
        "address": "1000 Girod St",
        "city": "New Orleans",
        "state":"LA",
        "zipcode":"70113",
        "location": { "lat": 29.94864, "lng": -90.07549 },
        "priceLevel": 1,
        "rating": null,
        "imageUrl": "",
        "website": ""
    },
    {
        "id": "96",
        "name": "The Original Fiorella\u2019s Cafe",
        "type": "restaurant",
        "description": "",
        "tags": [ "Restaurant", "Essential", "Local" ],
        "address": "5325 Franklin Ave",
        "city": "New Orleans",
        "state": "LA",
        "zipcode": "70122",
        "location": { "lat": 30.01322, "lng": -90.05083 },
        "priceLevel": 1,
        "rating": null,
        "imageUrl": "",
        "website": ""
    },
    {
        "id": "97",
        "name": "Toups Meatery",
        "type": "restaurant",
        "description": "",
        "tags": [ "Restaurant", "Brunch", "Local" ],
        "address": "845 N Carrollton Ave",
        "city": "New Orleans",
        "state":"LA",
        "zipcode": "70119",
        "location": { "lat": 29.98087, "lng": -90.09445 },
        "priceLevel": null,
        "rating": null,
        "imageUrl": "",
        "website": ""
    },
    {
        "id": "98",
        "name": "Trenasse",
        "type": "restaurant",
        "description": "",
        "tags": [ "Restaurant", "Seafood", "Brunch", "Hotel" ],
        "address": "444 St Charles Ave",
        "city": "New Orleans",
        "state":"LA",
        "zipcode": "70130",
        "location": { "lat": 29.95053, "lng": -90.06973 },
        "priceLevel": 2,
        "rating": null,
        "imageUrl": "",
        "website": ""
    },
    {
        "id": "99",
        "name": "Tujague\u2019s",
        "type": "restaurant",
        "description": "",
        "tags": [ "Restaurant", "Local", "Happy Hour" ],
        "address": "429 Decatur St",
        "city": "New Orleans",
        "state":"LA",
        "zipcode": "70130",
        "location": { "lat": 29.95525, "lng": -90.06444 },
        "priceLevel": null,
        "rating": null,
        "imageUrl": "",
        "website": ""
    },
    {
        "id": "100",
        "name": "Turkey and the Wolf",
        "type": "sandwich",
        "description": "",
        "tags": [ "Restaurant", "Essential", "Sandwich" ],
        "address": "739 Jackson Ave",
        "city": "New Orleans",
        "state":"LA",
        "zipcode":"70130",
        "location": { "lat": 29.92755, "lng": -90.07430 },
        "priceLevel": 1,
        "rating": null,
        "imageUrl": "",
        "website": ""
    },
    {
        "id": "101",
        "name": "Union Ramen Bar",
        "type": "restaurant",
        "description": "",
        "tags": [ "Restaurant", "Ramen", "Happy Hour" ],
        "address": "1837 Magazine St",
        "city": "New Orleans",
        "state":"LA",
        "zipcode": "70130",
        "location": { "lat": 29.93197, "lng": -90.07385 },
        "priceLevel": 2,
        "rating": null,
        "imageUrl": "",
        "website": ""
    },
    {
        "id": "102",
        "name": "Vessel NOLA",
        "type": "restaurant",
        "description": "",
        "tags": [ "Experimental", "Restaurant", "Brunch" ],
        "address": "3835 Iberville St",
        "city": "New Orleans",
        "state":"LA",
        "zipcode":"70119",
        "location": { "lat": 29.97441, "lng": -90.09748 },
        "priceLevel": 2,
        "rating": null,
        "imageUrl": "",
        "website": ""
    },
    {
        "id": "103",
        "name": "Vyoone\u2019s Restaurant",
        "type": "restaurant",
        "description": "",
        "tags": [  "Outdoor Dining", "French", "Restaurant" ],
        "address": "412 Girod St",
        "city": "New Orleans",
        "state":"LA",
        "zipcode": "70130",
        "location": { "lat": 29.94663, "lng": -90.06787 },
        "priceLevel": 2,
        "rating": null,
        "imageUrl": "",
        "website": ""
    },
    {
        "id": "104",
        "name": "Wakin Bakin\u2019",
        "type": "restaurant",
        "description": "",
        "tags": [ "Restaurant", "Breakfast" ],
        "address": "4408 Banks St",
        "city": "New Orleans",
        "state":"LA",
        "zipcode":"70119",
        "location": { "lat": 29.97488, "lng": -90.10671 },
        "priceLevel": 1,
        "rating": null,
        "imageUrl": "",
        "website": ""
    },
    {
        "id": "105",
        "name": "Willie Mae\u2019s Scotch House",
        "type": "restaurant",
        "description": "",
        "tags": [ "Restaurant", "Essential", "Local" ],
        "address": "898 Baronne St",
        "city": "New Orleans",
        "state": "LA",
        "zipcode": "70113",
        "location": { "lat": 29.94524, "lng": -90.07444 },
        "priceLevel": 1,
        "rating": null,
        "imageUrl": "",
        "website": ""
    },
    {
        "id": "106",
        "name": "Wishing Town Bakery Cafe",
        "type": "restaurant",
        "description": "",
        "tags": [ "Restaurant", "Bakery" ],
        "address": "802 Nashville Ave",
        "city": "New Orleans",
        "state": "LA",
        "zipcode": "70115",
        "location": { "lat": 29.92199, "lng": -90.11928 },
        "priceLevel": 1,
        "rating": null,
        "imageUrl": "",
        "website": "http://www.wishingtown.com/"
    },
    {
        "id": "107",
        "name": "Zasu",
        "type": "",
        "description": "",
        "tags": [ "Restaurant", "Fusion", "Essential" ],
        "address": "127 N Carrollton Ave",
        "city": "New Orleans",
        "state": "LA",
        "zipcode": "70119",
        "location": { "lat": 29.97550, "lng": -90.10019 },
        "priceLevel": null,
        "rating": null,
        "imageUrl": "",
        "website": ""
    },
    {
        "id": "108",
        "name": "Anna\u2019s",
        "type": "bar",
        "description": "",
        "tags": [ "Dive", "Bar", "Happy Hour", "Local" ],
        "address": "2601 Royal St",
        "city": "New Orleans",
        "state": "LA",
        "zipcode": "70117",
        "location": { "lat": 29.96518, "lng": -90.05131 },
        "priceLevel": null,
        "rating": null,
        "imageUrl": "",
        "website": "https://www.annasnola.com/"
    },
    {
        "id": "109",
        "name": "Peychaud\u2019s",
        "type": "cocktail",
        "description": "",
        "tags": [ "Bar", "Outdoor Dining", "Cocktail", "Hotel" ],
        "address": "727 Toulouse St",
        "city": "New Orleans",
        "zipcode": "70130",
        "location": { "lat": 29.95773, "lng": -90.06624 },
        "priceLevel": 1,
        "rating": null,
        "imageUrl": "",
        "website": ""
    },
    {
        "id": "110",
        "name": "The Will & The Way",
        "type": "bar",
        "description": "",
        "tags": [ "Bar", "Courtyard", "Cocktail" ],
        "address": "719 Toulouse St",
        "city": "New Orleans",
        "state": "LA",
        "zipcode": "70130",
        "location": { "lat": 29.95784, "lng": -90.06582 },
        "priceLevel": 2,
        "rating": null,
        "imageUrl": "",
        "website": "https://www.thewillandtheway.com/"
    },
    {
        "id": "111",
        "name": "Baroness on Baronne",
        "type": "cocktail",
        "description": "",
        "tags": [ "Bar", "Cocktail" ],
        "address": "550 Baronne St",
        "city": "New Orleans",
        "state": "LA",
        "zipcode": "70113",
        "location": { "lat": 29.94903, "lng": -90.07311 },
        "priceLevel": null,
        "rating": null,
        "imageUrl": "",
        "website": "https://virginhotels.com/new-orleans/dine-and-drink/rooftop/"
    },
    {
        "id": "112",
        "name": "The Pool Club",
        "type": "cocktail",
        "description": "",
        "tags": [ "Bar", "Cocktail", "Pool", "Rooftop" ],
        "address": "550 Barrone St",
        "city": "New Orleans",
        "state": "LA",
        "zipcode": "70113",
        "location": { "lat": 29.94903, "lng": -90.07311 },
        "priceLevel": null,
        "rating": null,
        "imageUrl": "",
        "website": ""
    },
    {
        "id": "113",
        "name": "The Chandelier Bar",
        "type": "upscale",
        "description": "",
        "tags": [ "Bar", "Upscale" ],
        "address": "2 Canal St",
        "city": "New Orleans",
        "state": "LA",
        "zipcode": "70130",
        "location": { "lat": 29.94906, "lng": -90.056385 },
        "priceLevel": 3,
        "rating": null,
        "imageUrl": "",
        "website": "https://www.fourseasons.com/neworleans/dining/lounges/chandelier-bar/?utm_source=google&utm_medium=organicsearch&utm_campaign=tor-nln-fab-mid-seo-na&utm_content=na-na&utm_term=na"
    },
    {
        "id": "114",
        "name": "Peacock Room",
        "type": "cocktail",
        "description": "",
        "tags": [ "Bar", "Cocktail" ],
        "address": "501 Tchoupitoulas St",
        "city": "New Orleans",
        "state": "LA",
        "zipcode": "70130",
        "location": { "lat": 29.94886, "lng": -90.06741 },
        "priceLevel": null,
        "rating": null,
        "imageUrl": "",
        "website": ""
    },
    {
        "id": "115",
        "name": "The Bower Bar",
        "type": "cocktail",
        "description": "",
        "tags": [ "Bar", "Cocktail", "Happy Hour", "Outdoor" ],
        "address": "1320 Magazine St",
        "city": "New Orleans",
        "state": "LA",
        "zipcode": "70130",
        "location": { "lat": 29.93803, "lng": -90.07133 },
        "priceLevel": 3,
        "rating": null,
        "imageUrl": "",
        "website": ""
    },
    {
        "id": "116",
        "name": "Vals",
        "type": "mexican",
        "description": "",
        "tags": [ "Bar", "Mexican" ],
        "address": "4632 Freret St",
        "city": "New Orleans",
        "state": "LA",
        "zipcode": "70115",
        "location": { "lat": 29.93498, "lng": -90.10610 },
        "priceLevel": null,
        "rating": null,
        "imageUrl": "",
        "website": "http://www.valsnola.com/"
    },
    {
        "id": "117",
        "name": "Tujague\u2019s",
        "type": "bar",
        "description": "",
        "tags": [ "Bar", "Cocktail", "Happy Hour" ],
        "address": "429 Decatur St",
        "city": "New Orleans",
        "state": "LA",
        "zipcode": "70130",
        "location": { "lat": 29.95512, "lng": -90.06454 },
        "priceLevel": null,
        "rating": null,
        "imageUrl": "",
        "website": "http://www.tujaguesrestaurant.com/"
    },
    {
        "id": "118",
        "name": "New Orleans Art Bar",
        "type": "bar",
        "description": "",
        "tags": [ "Bar", "Cocktail", "Happy Hour", "Outdoor" ],
        "address": "2128 St Claude Ave",
        "city": "New Orleans",
        "state": "LA",
        "zipcode": "70116",
        "location": { "lat": 29.96699, "lng": -90.05493 },
        "priceLevel": null,
        "rating": null,
        "imageUrl": "",
        "website": ""
    },
    {
        "id": "119",
        "name": "The Elysian Bar",
        "type": "bar",
        "description": "",
        "tags": [ "Bar", "Outdoor Dining", "Cocktail" ],
        "address": "2317 Burgundy St",
        "city": "New Orleans",
        "state": "LA",
        "zipcode": "70117",
        "location": { "lat": 29.96699, "lng": -90.05493 },
        "priceLevel": null,
        "rating": null,
        "imageUrl": "",
        "website": ""
    },
    {
        "id": "120",
        "name": "Bacchanal Fine Wine & Spirits",
        "type": "bar",
        "description": "",
        "tags": [ "Bar", "Outdoor Dining", "Wine" ],
        "address": "600 Poland Ave",
        "city": "New Orleans",
        "state": "LA",
        "zipcode": "70117",
        "location": { "lat": 29.95999, "lng": -90.03323 },
        "priceLevel": 2,
        "rating": null,
        "imageUrl": "",
        "website": ""
    },
    {
        "id": "121",
        "name": "Jewel of the South",
        "type": "bar",
        "description": "",
        "tags": [ "Bar", "Outdoor Dining", "Cocktail" ],
        "address": "1026 St Louis St",
        "city": "New Orleans",
        "state": "LA",
        "zipcode": "70112",
        "location": { "lat": 29.95870, "lng": -90.06950 },
        "priceLevel": null,
        "rating": null,
        "imageUrl": "",
        "website": ""
    },
    {
        "id": "122",
        "name": "Copper Vine",
        "type": "bar",
        "description": "",
        "tags": [ "Bar", "Outdoor Dining", "Wine" ],
        "address": "1001 Poydras St",
        "city": "New Orleans",
        "zipcode": "70112",
        "location": { "lat": 29.95081, "lng": -90.07445 },
        "priceLevel": null,
        "rating": null,
        "imageUrl": "",
        "website": "https://www.coppervine.com/"
    },
    {
        "id": "123",
        "name": "The Delachaise Wine Bar",
        "type": "wine",
        "description": "",
        "tags": [ "Bar", "Outdoor Dining", "Wine" ],
        "address": "3442 St Charles Ave",
        "city": "New Orleans",
        "state": "LA",
        "zipcode":"70115",
        "location": {  "lat": 29.92770, "lng": -90.09248 },
        "priceLevel": 2,
        "rating": null,
        "imageUrl": "",
        "website": ""
    },
    {
        "id": "124",
        "name": "Bayou Beer Garden",
        "type": "beer garden",
        "description": "",
        "tags": [ "Bar", "Outdoor Dining", "Beer Garden", "Late Night" ],
        "address": "326 N Norman C Francis Parkway",
        "city": "New Orleans",
        "zipcode": "70119",
        "location": { "lat": 20.97227, "lng": -90.09188 },
        "priceLevel": 1,
        "rating": null,
        "imageUrl": "",
        "website": ""
    },
    {
        "id": "125",
        "name": "The Avenue Pub",
        "type": "pub",
        "description": "",
        "tags": [ "Bar", "Pub", "Late Night" ],
        "address": "1732 St Charles Ave",
        "city": "New Orleans",
        "state": "LA",
        "zipcode": "70130",
        "location": { "lat": 29.93730, "lng": -90.07680 },
        "priceLevel": 1,
        "rating": null,
        "imageUrl": "",
        "website": ""
    },
    {
        "id": "126",
        "name": "Munch Factory",
        "type": "restaurant",
        "description": "",
        "tags": [ "Essential", "Local" ],
        "address": "6514 Congress Dr",
        "city": "New Orleans",
        "zipcode": "70126",
        "location": { "lat": 30.02735, "lng": -90.03868 },
        "priceLevel": 1,
        "rating": null,
        "imageUrl": "",
        "website": ""
    },
    {
        "id": "127",
        "name": "St. Joe\u2019s Bar",
        "type": "bar",
        "description": "",
        "tags": [ "Bar", "Outdoor Dining", "Cocktail" ],
        "address": "5535 Magazine St",
        "city": "New Orleans",
        "state": "LA",
        "zipcode": "70115",
        "location": { "lat": 29.92175, "lng": -90.11696 },
        "priceLevel": null,
        "rating": null,
        "imageUrl": "",
        "website": "http://stjoesbar.com/"
    },
    {
        "id": "128",
        "name": "Cure",
        "type": "bar",
        "description": "",
        "tags": [ "Bar", "Outdoor Dining", "Cocktail" ],
        "address": "4905 Freret St",
        "city": "New Orleans",
        "state": "LA",
        "zipcode": "70115",
        "location": { "lat": 29.93947, "lng": -90.10544 },
        "priceLevel": null,
        "rating": null,
        "imageUrl": "",
        "website": ""
    },
    {
        "id": "129",
        "name": "Zony Mash Beer Project",
        "type": "bar",
        "description": "",
        "tags": [ "Bar", "Outdoor Dining", "Brewery" ],
        "address": "3940 Thalia St",
        "city":"New Orleans",
        "state": "LA",
        "zipcode": "70125",
        "location": { "lat": 29.95232, "lng": -90.09761 },
        "priceLevel": null,
        "rating": null,
        "imageUrl": "",
        "website": ""
    },
    {
        "id": "130",
        "name": "Columns",
        "type": "bar",
        "description": "",
        "tags": [ "Bar", "Outdoor Dining", "Outdoor", "Hotel" ],
        "address": "3811 St Charles Ave",
        "city": "New Orleans",
        "state":"LA",
        "zipcode": "70115",
        "location": { "lat": 29.92764, "lng": -90.09601 },
        "priceLevel": null,
        "rating": null,
        "imageUrl": "",
        "website": "http://www.thecolumns.com/"
    },
    {
        "id": "131",
        "name": "Bouligny Tavern",
        "type": "bar",
        "description": "",
        "tags": [ "Bar", "Outdoor Dining", "Outdoor"],
        "address": "3641 Magazine St",
        "city": "New Orleans",
        "state": "LA",
        "zipcode": "70115",
        "location": { "lat": 29.92227, "lng": -90.09292 },
        "priceLevel": 2,
        "rating": null,
        "imageUrl": "",
        "website": "http://www.boulignytavern.com/"
    },
    {
        "id": "132",
        "name": "Bayou Wine Garden",
        "type": "bar",
        "description": "",
        "tags": [ "Bar", "Outdoor Dining", "Wine" ],
        "address": "315 N Rendon",
        "city": "New Orleans",
        "state": "LA",
        "zipcode": "70119",
        "location": { "lat": 29.97192, "lng": -90.09117 },
        "priceLevel": 2,
        "rating": null,
        "imageUrl": "",
        "website": "https://bayoubeergarden.com/"
    },
    {
        "id": "133",
        "name": "Hot Tin",
        "type": "bar",
        "description": "",
        "tags": [ "Bar", "Cocktail" ,"Outdoor Dining", "Rooftop", "Hotel"],
        "address": "2031 St Charles Ave FL 14",
        "city": "New Orleans",
        "state": "LA",
        "zipcode": "70130",
        "location": { "lat": 29.93521, "lng": -90.07984 },
        "priceLevel": 2,
        "rating": null,
        "imageUrl": "",
        "website": "https://hottinbar.com/"
    },
    {
        "id": "134",
        "name": "MRB Bar & Kitchen",
        "type": "restaurant",
        "description": "",
        "tags": [ "Bar", "Outdoor Dining", "Neighborhood"],
        "address": "515 St Philip St",
        "city": "New Orleans",
        "state": "LA",
        "zipcode": "70116",
        "location": { "lat": 29.95975, "lng": -90.06083 },
        "priceLevel": 1,
        "rating": null,
        "imageUrl": "",
        "website": "http://www.mrbnola.com/"
    },
    {
        "id": "135",
        "name": "Mister Oso",
        "type": "restaurant",
        "description": "",
        "tags": [ "Mexican", "Restaurant", "Happy Hour" ],
        "address": "601 Tchoupitoulas St",
        "city": "New Orleans",
        "state":"LA",
        "zipcode": "70130",
        "location": { "lat": 29.94749, "lng": -90.06763 },
        "priceLevel": 2,
        "rating": null,
        "imageUrl": "",
        "website": "https://www.misterosonola.com/"
    },
    {
        "id": "136",
        "name": "Parleaux Beer Lab",
        "type": "bar",
        "description": "",
        "tags": [ "Bar", "Outdoor Dining", "Brewery"],
        "address": "634 Lesseps St",
        "city": "New Orleans",
        "state":"LA",
        "zipcode": "70117",
        "location": { "lat": null, "lng": null },
        "priceLevel": null,
        "rating": null,
        "imageUrl": "",
        "website": "http://www.parleauxbeerlab.com/"
    },
    {
        "id": "137",
        "name": "Erin Rose",
        "type": "bar",
        "description": "",
        "tags": [ "Bar", "Irish", "Happy Hour", "Pub" ],
        "address": "811 Conti St",
        "city": "New Orleans",
        "state": "LA",
        "zipcode": "70112",
        "location": { "lat": 29.95674, "lng": -90.06804 },
        "priceLevel": 1,
        "rating": null,
        "imageUrl": "",
        "website": "http://www.erinrosebar.com/"
    },
    {
        "id": "138",
        "name": "High-Five Pool Bar",
        "type": "bar",
        "description": "",
        "tags": [ "Bar", "Rooftop", "Hotel" ],
        "address": "600 Carondelet St",
        "city": "New Orleans",
        "state": "LA",
        "zipcode": "70130",
        "location": { "lat": 29.94874, "lng": -90.07193 },
        "priceLevel": null,
        "rating": null,
        "imageUrl": "",
        "website": "https://thebarnett.com/eat-drink/#Rooftop"
    },
    {
        "id": "139",
        "name": "Rosie\u2019s on the Roof",
        "type": "bar",
        "description": "",
        "tags": [ "Bar", "Rooftop", "Hotel"],
        "address": "1000 Magazine St",
        "city": "New Orleans",
        "state":"LA",
        "zipcode": "70130",
        "location": { "lat": 29.94280, "lng": -90.06974 },
        "priceLevel": 1,
        "rating": null,
        "imageUrl": "",
        "website": "https://www.higginshotelnola.com/new-orleans-restaurants/rosies-on-the-roof"
    },
    {
        "id": "140",
        "name": "Mambo\u2019s",
        "type": "bar",
        "description": "",
        "tags": [ "Bar", "Rooftop", "Bourbon"],
        "address": "411 Bourbon St",
        "city": "New Orleans",
        "state":"LA",
        "zipcode": "70130",
        "location": { "lat": 29.95675, "lng": -90.06757 },
        "priceLevel": 2,
        "rating": null,
        "imageUrl": "",
        "website": "https://www.mambosnola.com/"
    }
]